,3746.9654,S,14516.5517,E,1,7,1.30,232.3,M,-3.5,M,,*5D
$GPRMC,002108.000,A,3746.9654,S,14516.5517,E,0.02,0.00,280409,,,A*74
$GPGGA,002108.500,3746.9653,S,14516.5517,E,1,7,1.45,232.3,M,-3.5,M,,*5D
$GPRMC,002108.500,A,3746.9653,S,14516.5517,E,0.02,0.00,280409,,,A*76
$GPGGA,002109.000,3746.9653,S,14516.5517,E,1,7,1.45,232.3,M,-3.5,M,,*59
$GPRMC,002109.000,A,3746.9653,S,14516.5517,E,0.02,0.00,280409,,,A*72
$GPGGA,002109.500,3746.9652,S,14516.5517,E,1,7,1.40,232.3,M,-3.5,M,,*58
$GPGSA,A,3,09,08,26,27,04,17,28,,,,,,2.41,1.40,1.95*05
$GPRMC,002109.500,A,3746.9652,S,14516.5517,E,0.02,0.00,280409,,,A*76
$GPGGA,002110.000,3746.9652,S,14516.5516,E,1,7,1.45,232.3,M,-3.5,M,,*51
$GPRMC,002110.000,A,3746.9652,S,14516.5516,E,0.03,0.00,280409,,,A*7B
$GPGGA,002110.500,3746.9651,S,14516.5516,E,1,7,1.30,232.3,M,-3.5,M,,*55
$GPRMC,002110.500,A,3746.9651,S,14516.5516,E,0.03,0.00,280409,,,A*7D
$GPGGA,002111.000,3746.9650,S,14516.5516,E,1,7,1.30,232.3,M,-3.5,M,,*50
$GPRMC,002111.000,A,3746.9650,S,14516.5516,E,0.03,0.00,280409,,,A*78
$GPGGA,002111.500,3746.9647,S,14516.5512,E,1,7,1.30,232.2,M,-3.5,M,,*56
$GPRMC,002111.500,A,3746.9647,S,14516.5512,E,0.03,0.00,280409,,,A*7F
$GPGGA,002112.000,3746.9644,S,14516.5509,E,1,7,1.45,231.8,M,-3.5,M,,*52
$GPRMC,002112.000,A,3746.9644,S,14516.5509,E,0.03,0.00,280409,,,A*70
$GPGGA,002112.500,3746.9642,S,14516.5509,E,1,6,2.85,231.4,M,-3.5,M,,*53
$GPRMC,002112.500,A,3746.9642,S,14516.5509,E,0.03,0.00,280409,,,A*73
$GPGGA,002113.000,3746.9639,S,14516.5509,E,1,6,1.73,231.1,M,-3.5,M,,*54
$GPRMC,002113.000,A,3746.9639,S,14516.5509,E,0.03,0.00,280409,,,A*7B
$GPGGA,002113.500,3746.9638,S,14516.5511,E,1,6,1.73,230.6,M,-3.5,M,,*5F
$GPRMC,002113.500,A,3746.9638,S,14516.5511,E,0.03,0.00,280409,,,A*76
$GPGGA,002114.000,3746.9634,S,14516.5510,E,1,6,1.73,230.6,M,-3.5,M,,*50
$GPRMC,002114.000,A,3746.9634,S,14516.5510,E,0.03,0.00,280409,,,A*79
$GPGGA,002114.500,3746.9630,S,14516.5508,E,1,6,1.73,230.9,M,-3.5,M,,*57
$GPGSA,A,3,08,26,27,04,17,28,,,,,,,3.47,1.73,3.01*04
$GPRMC,002114.500,A,3746.9630,S,14516.5508,E,0.03,0.00,280409,,,A*71
$GPGGA,002115.000,3746.9625,S,14516.5505,E,1,6,1.36,231.2,M,-3.5,M,,*51
$GPRMC,002115.000,A,3746.9625,S,14516.5505,E,0.03,0.00,280409,,,A*7C
$GPGGA,002115.500,3746.9620,S,14516.5505,E,1,6,1.36,231.6,M,-3.5,M,,*55
$GPRMC,002115.500,A,3746.9620,S,14516.5505,E,0.03,0.00,280409,,,A*7C
$GPGGA,002116.000,3746.9614,S,14516.5502,E,1,6,1.37,231.9,M,-3.5,M,,*5D
$GPRMC,002116.000,A,3746.9614,S,14516.5502,E,0.03,0.00,280409,,,A*7A
$GPGGA,002116.500,3746.9610,S,14516.5499,E,1,6,1.36,232.1,M,-3.5,M,,*55
$GPRMC,002116.500,A,3746.9610,S,14516.5499,E,0.03,0.00,280409,,,A*78
$GPGGA,002117.000,3746.9605,S,14516.5500,E,1,6,1.37,232.6,M,-3.5,M,,*52
$GPRMC,002117.000,A,3746.9605,S,14516.5500,E,0.03,0.00,280409,,,A*79
$GPGGA,002117.500,3746.9603,S,14516.5502,E,1,6,1.36,233.0,M,-3.5,M,,*55
$GPRMC,002117.500,A,3746.9603,S,14516.5502,E,0.03,0.00,280409,,,A*78
$GPGGA,002118.000,3746.9602,S,14516.5504,E,1,6,1.37,233.0,M,-3.5,M,,*59
$GPRMC,002118.000,A,3746.9602,S,14516.5504,E,0.03,0.00,280409,,,A*75
$GPGGA,002118.500,3746.9599,S,14516.5503,E,1,6,1.37,233.2,M,-3.5,M,,*58
$GPRMC,002118.500,A,3746.9599,S,14516.5503,E,0.03,0.00,280409,,,A*76
$GPGGA,002119.000,3746.9597,S,14516.5502,E,1,6,1.37,233.3,M,-3.5,M,,*52
$GPRMC,002119.000,A,3746.9597,S,14516.5502,E,0.02,0.00,280409,,,A*7C
$GPGGA,002119.500,3746.9595,S,14516.5503,E,1,7,1.37,233.4,M,-3.5,M,,*52
$GPGSA,A,3,15,08,26,27,04,17,28,,,,,,1.66,1.37,0.95*0F
$GPRMC,002119.500,A,3746.9595,S,14516.5503,E,0.02,0.00,280409,,,A*7A
$GPGGA,002120.000,3746.9591,S,14516.5502,E,1,7,1.37,233.3,M,-3.5,M,,*5F
$GPRMC,002120.000,A,3746.9591,S,14516.5502,E,0.02,0.00,280409,,,A*70
$GPGGA,002120.500,3746.9591,S,14516.5502,E,1,7,1.73,233.3,M,-3.5,M,,*5A
$GPRMC,002120.500,A,3746.9591,S,14516.5502,E,0.02,0.00,280409,,,A*75
$GPGGA,002121.000,3746.9590,S,14516.5502,E,1,7,1.73,233.4,M,-3.5,M,,*58
$GPRMC,002121.000,A,3746.9590,S,14516.5502,E,0.02,0.00,280409,,,A*70
$GPGGA,002121.500,3746.9590,S,14516.5502,E,1,7,1.73,233.4,M,-3.5,M,,*5D
$GPRMC,002121.500,A,3746.9590,S,14516.5502,E,0.02,0.00,280409,,,A*75
$GPGGA,002122.000,3746.9589,S,14516.5502,E,1,7,1.73,233.4,M,-3.5,M,,*53
$GPRMC,002122.000,A,3746.9589,S,14516.5502,E,0.02,0.00,280409,,,A*7B
$GPGGA,002122.500,3746.9589,S,14516.5502,E,1,7,1.73,233.5,M,-3.5,M,,*57
$GPRMC,002122.500,A,3746.9589,S,14516.5502,E,0.02,0.00,280409,,,A*7E
$GPGGA,002123.000,3746.9588,S,14516.5501,E,1,7,1.36,233.5,M,-3.5,M,,*50
$GPRMC,002123.000,A,3746.9588,S,14516.5501,E,0.03,0.00,280409,,,A*79
$GPGGA,002123.500,3746.9587,S,14516.5501,E,1,7,1.36,233.5,M,-3.5,M,,*5A
$GPRMC,002123.500,A,3746.9587,S,14516.5501,E,0.03,0.00,280409,,,A*73
$GPGGA,002124.000,3746.9586,S,14516.5498,E,1,7,1.36,233.3,M,-3.5,M,,*5E
$GPRMC,002124.000,A,3746.9586,S,14516.5498,E,0.03,0.00,280409,,,A*71
$GPGGA,002124.500,3746.9587,S,14516.5496,E,1,7,1.36,232.8,M,-3.5,M,,*5E
$GPGSA,A,3,15,08,26,27,04,17,28,,,,,,1.66,1.36,0.95*0E
$GPRMC,002124.500,A,3746.9587,S,14516.5496,E,0.03,0.00,280409,,,A*7B
$GPGGA,002125.000,3746.9585,S,14516.5491,E,1,7,1.36,232.5,M,-3.5,M,,*52
$GPRMC,002125.000,A,3746.9585,S,14516.5491,E,0.03,0.00,280409,,,A*7A
$GPGGA,002125.500,3746.9582,S,14516.5487,E,1,7,1.36,232.3,M,-3.5,M,,*51
$GPRMC,002125.500,A,3746.9582,S,14516.5487,E,0.03,0.00,280409,,,A*7F
$GPGGA,002126.000,3746.9581,S,14516.5484,E,1,7,1.36,232.2,M,-3.5,M,,*56
$GPRMC,002126.000,A,3746.9581,S,14516.5484,E,0.03,0.00,280409,,,A*79
$GPGGA,002126.500,3746.9579,S,14516.5482,E,1,7,1.36,232.1,M,-3.5,M,,*51
$GPRMC,002126.500,A,3746.9579,S,14516.5482,E,0.03,0.00,280409,,,A*7D
$GPGGA,002127.000,3746.9578,S,14516.5480,E,1,7,1.36,232.1,M,-3.5,M,,*56
$GPRMC,002127.000,A,3746.9578,S,14516.5480,E,0.03,0.00,280409,,,A*7A
$GPGGA,002127.500,3746.9578,S,14516.5478,E,1,7,1.36,232.0,M,-3.5,M,,*55
$GPRMC,002127.500,A,3746.9578,S,14516.5478,E,0.03,0.00,280409,,,A*78
$GPGGA,002128.000,3746.9579,S,14516.5474,E,1,7,1.36,232.0,M,-3.5,M,,*52
$GPRMC,002128.000,A,3746.9579,S,14516.5474,E,0.02,0.00,280409,,,A*7E
$GPGGA,002128.500,3746.9580,S,14516.5470,E,1,7,1.36,232.0,M,-3.5,M,,*55
$GPRMC,002128.500,A,3746.9580,S,14516.5470,E,0.02,0.00,280409,,,A*79
$GPGGA,002129.000,3746.9582,S,14516.5468,E,1,7,1.37,231.8,M,-3.5,M,,*50
$GPRMC,002129.000,A,3746.9582,S,14516.5468,E,0.09,0.00,280409,,,A*7D
$GPGGA,002129.500,3746.9582,S,14516.5468,E,1,7,1.36,231.8,M,-3.5,M,,*54
$GPGSA,A,3,15,08,26,27,04,17,28,,,,,,1.66,1.36,0.95*0E
$GPRMC,002129.500,A,3746.9582,S,14516.5468,E,0.09,0.00,280409,,,A*78
$GPGGA,002130.000,3746.9582,S,14516.5468,E,1,7,1.36,231.8,M,-3.5,M,,*59
$GPRMC,002130.000,A,3746.9582,S,14516.5468,E,0.09,0.00,280409,,,A*75
$GPGGA,002130.500,3746.9582,S,14516.5467,E,1,7,1.36,231.8,M,-3.5,M,,*53
$GPRMC,002130.500,A,3746.9582,S,14516.5467,E,0.10,0.00,280409,,,A*77
$GPGGA,002131.000,3746.9582,S,14516.5467,E,1,7,1.36,231.8,M,-3.5,M,,*57
$GPRMC,002131.000,A,3746.9582,S,14516.5467,E,0.10,0.00,280409,,,A*73
$GPGGA,002131.500,3746.9582,S,14516.5467,E,1,7,1.36,231.8,M,-3.5,M,,*52
$GPRMC,002131.500,A,3746.9582,S,14516.5467,E,0.10,0.00,280409,,,A*76
$GPGGA,002132.000,3746.9583,S,14516.5467,E,1,7,1.36,231.8,M,-3.5,M,,*55
$GPRMC,002132.000,A,3746.9583,S,14516.5467,E,0.10,0.00,280409,,,A*71
$GPGGA,002132.500,3746.9583,S,14516.5467,E,1,7,1.36,231.8,M,-3.5,M,,*50
$GPRMC,002132.500,A,3746.9583,S,14516.5467,E,0.10,0.00,280409,,,A*74
$GPGGA,002133.000,3746.9583,S,14516.5467,E,1,7,1.20,231.8,M,-3.5,M,,*53
$GPRMC,002133.000,A,3746.9583,S,14516.5467,E,0.10,0.00,280409,,,A*70
$GPGGA,002133.500,3746.9584,S,14516.5468,E,1,7,1.20,231.8,M,-3.5,M,,*5E
$GPRMC,002133.500,A,3746.9584,S,14516.5468,E,0.09,0.00,280409,,,A*75
$GPGGA,002134.000,3746.9584,S,14516.5468,E,1,7,1.20,231.8,M,-3.5,M,,*5C
$GPRMC,002134.000,A,3746.9584,S,14516.5468,E,0.05,0.00,280409,,,A*7B
$GPGGA,002134.500,3746.9584,S,14516.5468,E,1,7,1.20,231.8,M,-3.5,M,,*59
$GPGSA,A,3,15,08,26,27,04,17,28,,,,,,1.53,1.20,0.95*0F
$GPRMC,002134.500,A,3746.9584,S,14516.5468,E,0.06,0.00,280409,,,A*7D
$GPGGA,002135.000,3746.9584,S,14516.5468,E,1,7,1.73,231.8,M,-3.5,M,,*5B
$GPRMC,002135.000,A,3746.9584,S,14516.5468,E,0.06,0.00,280409,,,A*79
$GPGGA,002135.500,3746.9584,S,14516.5468,E,1,7,1.36,231.8,M,-3.5,M,,*5F
$GPRMC,002135.500,A,3746.9584,S,14516.5468,E,0.06,0.00,280409,,,A*7C
$GPGGA,002136.000,3746.9584,S,14516.5468,E,1,7,1.36,231.8,M,-3.5,M,,*59
$GPRMC,002136.000,A,3746.9584,S,14516.5468,E,0.06,0.00,280409,,,A*7A
$GPGGA,002136.500,3746.9584,S,14516.5468,E,1,7,1.36,231.8,M,-3.5,M,,*5C
$GPRMC,002136.500,A,3746.9584,S,14516.5468,E,0.06,0.00,280409,,,A*7F
$GPGGA,002137.000,3746.9584,S,14516.5469,E,1,7,1.20,231.8,M,-3.5,M,,*5E
$GPRMC,002137.000,A,3746.9584,S,14516.5469,E,0.06,0.00,280409,,,A*7A
$GPGGA,002137.500,3746.9584,S,14516.5469,E,1,7,1.36,231.8,M,-3.5,M,,*5C
$GPRMC,002137.500,A,3746.9584,S,14516.5469,E,0.06,0.00,280409,,,A*7F
$GPGGA,002138.000,3746.9585,S,14516.5469,E,1,7,1.36,231.8,M,-3.5,M,,*57
$GPRMC,002138.000,A,3746.9585,S,14516.5469,E,0.06,0.00,280409,,,A*74
$GPGGA,002138.500,3746.9585,S,14516.5470,E,1,7,1.36,231.8,M,-3.5,M,,*5A
$GPRMC,002138.500,A,3746.9585,S,14516.5470,E,0.06,0.00,280409,,,A*79
$GPGGA,002139.000,3746.9586,S,14516.5470,E,1,7,1.36,231.8,M,-3.5,M,,*5D
$GPRMC,002139.000,A,3746.9586,S,14516.5470,E,0.06,0.00,280409,,,A*7E
$GPGGA,002139.500,3746.9586,S,14516.5470,E,1,7,1.36,231.8,M,-3.5,M,,*58
$GPGSA,A,3,15,08,26,27,04,17,28,,,,,,1.66,1.36,0.95*0E
$GPRMC,002139.500,A,3746.9586,S,14516.5470,E,0.06,0.00,280409,,,A*7B
$GPGGA,002140.000,3746.9586,S,14516.5471,E,1,7,1.36,231.8,M,-3.5,M,,*52
$GPRMC,002140.000,A,3746.9586,S,14516.5471,E,0.06,0.00,280409,,,A*71
$GPGGA,002140.500,3746.9586,S,14516.5471,E,1,7,1.36,231.8,M,-3.5,M,,*57
$GPRMC,002140.500,A,3746.9586,S,14516.5471,E,0.06,0.00,280409,,,A*74
$GPGGA,002141.000,3746.9587,S,14516.5471,E,1,7,1.20,231.8,M,-3.5,M,,*55
$GPRMC,002141.000,A,3746.9587,S,14516.5471,E,0.06,0.00,280409,,,A*71
$GPGGA,002141.500,3746.9587,S,14516.5472,E,1,7,1.20,231.8,M,-3.5,M,,*53
$GPRMC,002141.500,A,3746.9587,S,14516.5472,E,0.06,0.00,280409,,,A*77
$GPGGA,002142.000,3746.9586,S,14516.5472,E,1,7,1.20,231.8,M,-3.5,M,,*54
$GPRMC,002142.000,A,3746.9586,S,14516.5472,E,0.06,0.00,280409,,,A*70
$GPGGA,002142.500,3746.9589,S,14516.5471,E,1,7,1.20,231.8,M,-3.5,M,,*5D
$GPRMC,002142.500,A,3746.9589,S,14516.5471,E,0.06,0.00,280409,,,A*79
$GPGGA,002143.000,3746.9592,S,14516.5470,E,1,7,1.20,231.9,M,-3.5,M,,*53
$GPRMC,002143.000,A,3746.9592,S,14516.5470,E,0.06,0.00,280409,,,A*76
$GPGGA,002143.500,3746.9595,S,14516.5469,E,1,7,1.20,231.9,M,-3.5,M,,*59
$GPRMC,002143.500,A,3746.9595,S,14516.5469,E,0.06,0.00,280409,,,A*7C
$GPGGA,002144.000,3746.9596,S,14516.5466,E,1,7,1.20,232.0,M,-3.5,M,,*5D
$GPRMC,002144.000,A,3746.9596,S,14516.5466,E,0.06,0.00,280409,,,A*72
$GPGGA,002144.500,3746.9598,S,14516.5465,E,1,7,1.20,232.1,M,-3.5,M,,*54
$GPGSA,A,3,15,08,26,27,04,17,28,,,,,,1.53,1.20,0.95*0F
$GPRMC,002144.500,A,3746.9598,S,14516.5465,E,0.06,0.00,280409,,,A*7A
$GPGGA,002145.000,3746.9602,S,14516.5464,E,1,7,1.20,232.1,M,-3.5,M,,*51
$GPRMC,002145.000,A,3746.9602,S,14516.5464,E,0.06,0.00,280409,,,A*7F
$GPGGA,002145.500,3746.9602,S,14516.5465,E,1,7,1.20,232.0,M,-3.5,M,,*54
$GPRMC,002145.500,A,3746.9602,S,14516.5465,E,0.06,0.00,280409,,,A*7B
$GPGGA,002146.000,3746.9603,S,14516.5464,E,1,7,1.20,232.0,M,-3.5,M,,*52
$GPRMC,002146.000,A,3746.9603,S,14516.5464,E,0.06,0.00,280409,,,A*7D
$GPGGA,002146.500,3746.9603,S,14516.5465,E,1,7,1.20,231.9,M,-3.5,M,,*5C
$GPRMC,002146.500,A,3746.9603,S,14516.5465,E,0.06,0.00,280409,,,A*79
$GPGGA,002147.000,3746.9605,S,14516.5465,E,1,7,1.56,231.9,M,-3.5,M,,*5F
$GPRMC,002147.000,A,3746.9605,S,14516.5465,E,0.06,0.00,280409,,,A*7B
$GPGGA,002147.500,3746.9606,S,14516.5464,E,1,7,1.56,231.8,M,-3.5,M,,*59
$GPRMC,002147.500,A,3746.9606,S,14516.5464,E,0.06,0.00,280409,,,A*7C
$GPGGA,002148.000,3746.9608,S,14516.5465,E,1,7,1.56,231.8,M,-3.5,M,,*5C
$GPRMC,002148.000,A,3746.9608,S,14516.5465,E,0.06,0.00,280409,,,A*79
$GPGGA,002148.500,3746.9611,S,14516.5464,E,1,6,1.73,231.9,M,-3.5,M,,*57
$GPRMC,002148.500,A,3746.9611,S,14516.5464,E,0.06,0.00,280409,,,A*75
$GPGGA,002149.000,3746.9614,S,14516.5462,E,1,6,1.73,231.9,M,-3.5,M,,*50
$GPRMC,002149.000,A,3746.9614,S,14516.5462,E,0.06,0.00,280409,,,A*72
$GPGGA,002149.500,3746.9617,S,14516.5461,E,1,6,1.36,231.7,M,-3.5,M,,*5A
$GPGSA,A,3,08,26,27,04,17,28,,,,,,,1.66,1.36,0.95*0A
$GPRMC,002149.500,A,3746.9617,S,14516.5461,E,0.06,0.00,280409,,,A*77
$GPGGA,002150.000,3746.9619,S,14516.5461,E,1,6,1.36,231.7,M,-3.5,M,,*59
$GPRMC,002150.000,A,3746.9619,S,14516.5461,E,0.06,0.00,280409,,,A*74
$GPGGA,002150.500,3746.9621,S,14516.5461,E,1,6,1.36,231.7,M,-3.5,M,,*57
$GPRMC,002150.500,A,3746.9621,S,14516.5461,E,0.06,0.00,280409,,,A*7A
$GPGGA,002151.000,3746.9622,S,14516.5462,E,1,6,1.36,231.7,M,-3.5,M,,*53
$GPRMC,002151.000,A,3746.9622,S,14516.5462,E,0.06,0.00,280409,,,A*7E
$GPGGA,002151.500,3746.9624,S,14516.5463,E,1,6,1.36,231.8,M,-3.5,M,,*5E
$GPRMC,002151.500,A,3746.9624,S,14516.5463,E,0.06,0.00,280409,,,A*7C
$GPGGA,002152.000,3746.9625,S,14516.5463,E,1,6,1.36,231.8,M,-3.5,M,,*59
$GPRMC,002152.000,A,3746.9625,S,14516.5463,E,0.06,0.00,280409,,,A*7B
$GPGGA,002152.500,3746.9626,S,14516.5462,E,1,6,1.36,231.8,M,-3.5,M,,*5E
$GPRMC,002152.500,A,3746.9626,S,14516.5462,E,0.06,0.00,280409,,,A*7C
$GPGGA,002153.000,3746.9626,S,14516.5461,E,1,6,1.36,231.9,M,-3.5,M,,*58
$GPRMC,002153.000,A,3746.9626,S,14516.5461,E,0.06,0.00,280409,,,A*7B
$GPGGA,002153.500,3746.9625,S,14516.5460,E,1,6,1.36,231.9,M,-3.5,M,,*5F
$GPRMC,002153.500,A,3746.9625,S,14516.5460,E,0.06,0.00,280409,,,A*7C
$GPGGA,002154.000,3746.9626,S,14516.5459,E,1,6,1.36,232.0,M,-3.5,M,,*5E
$GPRMC,002154.000,A,3746.9626,S,14516.5459,E,0.06,0.00,280409,,,A*77
$GPGGA,002154.500,3746.9625,S,14516.5460,E,1,6,1.36,232.0,M,-3.5,M,,*52
$GPGSA,A,3,08,26,27,04,17,28,,,,,,,1.66,1.36,0.95*0A
$GPRMC,002154.500,A,3746.9625,S,14516.5460,E,0.06,0.00,280409,,,A*7B
$GPGGA,002155.000,3746.9627,S,14516.5458,E,1,6,1.36,232.1,M,-3.5,M,,*5E
$GPRMC,002155.000,A,3746.9627,S,14516.5458,E,0.06,0.00,280409,,,A*76
$GPGGA,002155.500,3746.9627,S,14516.5459,E,1,6,1.36,232.2,M,-3.5,M,,*59
$GPRMC,002155.500,A,3746.9627,S,14516.5459,E,0.06,0.00,280409,,,A*72
$GPGGA,002156.000,3746.9627,S,14516.5460,E,1,6,1.36,232.2,M,-3.5,M,,*55
$GPRMC,002156.000,A,3746.9627,S,14516.5460,E,0.06,0.00,280409,,,A*7E
$GPGGA,002156.500,3746.9628,S,14516.5460,E,1,5,1.42,232.2,M,-3.5,M,,*5F
$GPRMC,002156.500,A,3746.9628,S,14516.5460,E,0.06,0.00,280409,,,A*74
$GPGGA,002157.000,3746.9628,S,14516.5460,E,1,6,1.36,232.2,M,-3.5,M,,*5B
$GPRMC,002157.000,A,3746.9628,S,14516.5460,E,0.06,0.00,280409,,,A*70
$GPGGA,002157.500,3746.9631,S,14516.5460,E,1,6,1.36,232.2,M,-3.5,M,,*56
$GPRMC,002157.500,A,3746.9631,S,14516.5460,E,0.06,0.00,280409,,,A*7D
$GPGGA,002158.000,3746.9632,S,14516.5461,E,1,6,1.36,232.2,M,-3.5,M,,*5E
$GPRMC,002158.000,A,3746.9632,S,14516.5461,E,0.06,0.00,280409,,,A*75
$GPGGA,002158.500,3746.9634,S,14516.5460,E,1,6,1.36,232.2,M,-3.5,M,,*5C
$GPRMC,002158.500,A,3746.9634,S,14516.5460,E,0.06,0.00,280409,,,A*77
$GPGGA,002159.000,3746.9636,S,14516.5459,E,1,5,1.42,232.2,M,-3.5,M,,*50
$GPRMC,002159.000,A,3746.9636,S,14516.5459,E,0.06,0.00,280409,,,A*7B
$GPGGA,002159.500,3746.9639,S,14516.5459,E,1,6,1.36,232.3,M,-3.5,M,,*5B
$GPGSA,A,3,08,26,27,04,17,28,,,,,,,1.66,1.36,0.95*0A
$GPRMC,002159.500,A,3746.9639,S,14516.5459,E,0.06,0.00,280409,,,A*71
$GPGGA,002200.000,3746.9641,S,14516.5460,E,1,5,1.42,232.4,M,-3.5,M,,*53
$GPRMC,002200.000,A,3746.9641,S,14516.5460,E,0.06,0.00,280409,,,A*7E
$GPGGA,002200.500,3746.9643,S,14516.5460,E,1,5,1.42,232.4,M,-3.5,M,,*54
$GPRMC,002200.500,A,3746.9643,S,14516.5460,E,0.06,0.00,280409,,,A*79
$GPGGA,002201.000,3746.9645,S,14516.5461,E,1,5,1.42,232.4,M,-3.5,M,,*57
$GPRMC,002201.000,A,3746.9645,S,14516.5461,E,0.07,0.00,280409,,,A*7B
$GPGGA,002201.500,3746.9647,S,14516.5462,E,1,6,1.36,232.4,M,-3.5,M,,*53
$GPRMC,002201.500,A,3746.9647,S,14516.5462,E,0.07,0.00,280409,,,A*7F
$GPGGA,002202.000,3746.9648,S,14516.5462,E,1,6,1.36,232.4,M,-3.5,M,,*5A
$GPRMC,002202.000,A,3746.9648,S,14516.5462,E,0.07,0.00,280409,,,A*76
$GPGGA,002202.500,3746.9652,S,14516.5463,E,1,6,1.36,232.5,M,-3.5,M,,*54
$GPRMC,002202.500,A,3746.9652,S,14516.5463,E,0.07,0.00,280409,,,A*79
$GPGGA,002203.000,3746.9653,S,14516.5463,E,1,6,1.36,232.5,M,-3.5,M,,*51
$GPRMC,002203.000,A,3746.9653,S,14516.5463,E,0.07,0.00,280409,,,A*7C
$GPGGA,002203.500,3746.9656,S,14516.5462,E,1,6,1.36,232.5,M,-3.5,M,,*50
$GPRMC,002203.500,A,3746.9656,S,14516.5462,E,0.07,0.00,280409,,,A*7D
$GPGGA,002204.000,3746.9658,S,14516.5463,E,1,6,1.36,232.6,M,-3.5,M,,*5E
$GPRMC,002204.000,A,3746.9658,S,14516.5463,E,0.07,0.00,280409,,,A*70
$GPGGA,002204.500,3746.9660,S,14516.5463,E,1,6,1.36,232.6,M,-3.5,M,,*50
$GPGSA,A,3,08,26,27,04,17,28,,,,,,,1.66,1.36,0.95*0A
$GPRMC,002204.500,A,3746.9660,S,14516.5463,E,0.07,0.00,280409,,,A*7E
$GPGGA,002205.000,3746.9663,S,14516.5463,E,1,6,1.36,232.6,M,-3.5,M,,*57
$GPRMC,002205.000,A,3746.9663,S,14516.5463,E,0.07,0.00,280409,,,A*79
$GPGGA,002205.500,3746.9665,S,14516.5461,E,1,6,1.36,232.6,M,-3.5,M,,*56
$GPRMC,002205.500,A,3746.9665,S,14516.5461,E,0.07,0.00,280409,,,A*78
$GPGGA,002206.000,3746.9665,S,14516.5462,E,1,6,1.36,232.5,M,-3.5,M,,*50
$GPRMC,002206.000,A,3746.9665,S,14516.5462,E,0.06,0.00,280409,,,A*7C
$GPGGA,002206.500,3746.9666,S,14516.5462,E,1,6,1.36,232.5,M,-3.5,M,,*56
$GPRMC,002206.500,A,3746.9666,S,14516.5462,E,0.06,0.00,280409,,,A*7A
$GPGGA,002207.000,3746.9666,S,14516.5462,E,1,6,1.36,232.5,M,-3.5,M,,*52
$GPRMC,002207.000,A,3746.9666,S,14516.5462,E,0.06,0.00,280409,,,A*7E
$GPGGA,002207.500,3746.9663,S,14516.5459,E,1,6,1.36,232.5,M,-3.5,M,,*5A
$GPRMC,002207.500,A,3746.9663,S,14516.5459,E,0.06,0.00,280409,,,A*76
$GPGGA,002208.000,3746.9663,S,14516.5458,E,1,6,1.36,232.5,M,-3.5,M,,*51
$GPRMC,002208.000,A,3746.9663,S,14516.5458,E,0.06,0.00,280409,,,A*7D
$GPGGA,002208.500,3746.9662,S,14516.5459,E,1,6,1.36,232.5,M,-3.5,M,,*54
$GPRMC,002208.500,A,3746.9662,S,14516.5459,E,0.06,0.00,280409,,,A*78
$GPGGA,002209.000,3746.9662,S,14516.5459,E,1,6,1.36,232.4,M,-3.5,M,,*51
$GPRMC,002209.000,A,3746.9662,S,14516.5459,E,0.06,0.00,280409,,,A*7C
$GPGGA,002209.500,3746.9661,S,14516.5458,E,1,6,1.36,232.4,M,-3.5,M,,*56
$GPGSA,A,3,08,26,27,04,17,28,,,,,,,1.66,1.36,0.95*0A
$GPRMC,002209.500,A,3746.9661,S,14516.5458,E,0.06,0.00,280409,,,A*7B
$GPGGA,002210.000,3746.9663,S,14516.5458,E,1,6,1.36,232.4,M,-3.5,M,,*59
$GPRMC,002210.000,A,3746.9663,S,14516.5458,E,0.06,0.00,280409,,,A*74
$GPGGA,002210.500,3746.9660,S,14516.5456,E,1,6,1.36,232.4,M,-3.5,M,,*51
$GPRMC,002210.500,A,3746.9660,S,14516.5456,E,0.06,0.00,280409,,,A*7C
$GPGGA,002211.000,3746.9659,S,14516.5455,E,1,6,1.36,232.4,M,-3.5,M,,*5C
$GPRMC,002211.000,A,3746.9659,S,14516.5455,E,0.06,0.00,280409,,,A*71
$GPGGA,002211.500,3746.9657,S,14516.5452,E,1,6,1.36,232.4,M,-3.5,M,,*50
$GPRMC,002211.500,A,3746.9657,S,14516.5452,E,0.06,0.00,280409,,,A*7D
$GPGGA,002212.000,3746.9655,S,14516.5449,E,1,6,1.36,232.4,M,-3.5,M,,*5E
$GPRMC,002212.000,A,3746.9655,S,14516.5449,E,0.06,0.00,280409,,,A*73
$GPGGA,002212.500,3746.9655,S,14516.5448,E,1,6,1.36,232.4,M,-3.5,M,,*5A
$GPRMC,002212.500,A,3746.9655,S,14516.5448,E,0.06,0.00,280409,,,A*77
$GPGGA,002213.000,3746.9654,S,14516.5444,E,1,6,1.36,232.4,M,-3.5,M,,*53
$GPRMC,002213.000,A,3746.9654,S,14516.5444,E,0.06,0.00,280409,,,A*7E
$GPGGA,002213.500,3746.9653,S,14516.5442,E,1,7,1.36,232.4,M,-3.5,M,,*56
$GPRMC,002213.500,A,3746.9653,S,14516.5442,E,0.06,0.00,280409,,,A*7A
$GPGGA,002214.000,3746.9654,S,14516.5440,E,1,7,1.20,232.3,M,-3.5,M,,*51
$GPRMC,002214.000,A,3746.9654,S,14516.5440,E,0.06,0.00,280409,,,A*7D
$GPGGA,002214.500,3746.9654,S,14516.5437,E,1,7,1.20,232.3,M,-3.5,M,,*54
$GPGSA,A,3,15,08,26,27,04,17,28,,,,,,1.53,1.20,0.95*0F
$GPRMC,002214.500,A,3746.9654,S,14516.5437,E,0.06,0.00,280409,,,A*78
$GPGGA,002215.000,3746.9652,S,14516.5435,E,1,7,1.20,232.3,M,-3.5,M,,*54
$GPRMC,002215.000,A,3746.9652,S,14516.5435,E,0.06,0.00,280409,,,A*78
$GPGGA,002215.500,3746.9652,S,14516.5432,E,1,7,1.20,232.3,M,-3.5,M,,*56
$GPRMC,002215.500,A,3746.9652,S,14516.5432,E,0.06,0.00,280409,,,A*7A
$GPGGA,002216.000,3746.9652,S,14516.5430,E,1,7,1.20,232.3,M,-3.5,M,,*52
$GPRMC,002216.000,A,3746.9652,S,14516.5430,E,0.06,0.00,280409,,,A*7E
$GPGGA,002216.500,3746.9653,S,14516.5428,E,1,7,1.20,232.2,M,-3.5,M,,*5E
$GPRMC,002216.500,A,3746.9653,S,14516.5428,E,0.06,0.00,280409,,,A*73
$GPGGA,002217.000,3746.9654,S,14516.5425,E,1,7,1.20,232.2,M,-3.5,M,,*50
$GPRMC,002217.000,A,3746.9654,S,14516.5425,E,0.07,0.00,280409,,,A*7C
$GPGGA,002217.500,3746.9655,S,14516.5422,E,1,7,1.20,232.2,M,-3.5,M,,*53
$GPRMC,002217.500,A,3746.9655,S,14516.5422,E,0.07,0.00,280409,,,A*7F
$GPGGA,002218.000,3746.9657,S,14516.5420,E,1,7,1.20,232.2,M,-3.5,M,,*59
$GPRMC,002218.000,A,3746.9657,S,14516.5420,E,0.07,0.00,280409,,,A*75
$GPGGA,002218.500,3746.9659,S,14516.5417,E,1,6,1.21,232.1,M,-3.5,M,,*55
$GPRMC,002218.500,A,3746.9659,S,14516.5417,E,0.07,0.00,280409,,,A*7A
$GPGGA,002219.000,3746.9658,S,14516.5415,E,1,6,1.37,232.0,M,-3.5,M,,*54
$GPRMC,002219.000,A,3746.9658,S,14516.5415,E,0.07,0.00,280409,,,A*7D
$GPGGA,002219.500,3746.9657,S,14516.5412,E,1,6,1.21,232.0,M,-3.5,M,,*5E
$GPGSA,A,3,15,08,26,27,04,28,,,,,,,1.56,1.21,0.99*01
$GPRMC,002219.500,A,3746.9657,S,14516.5412,E,0.07,0.00,280409,,,A*70
$GPGGA,002220.000,3746.9655,S,14516.5410,E,1,6,1.21,231.8,M,-3.5,M,,*5A
$GPRMC,002220.000,A,3746.9655,S,14516.5410,E,0.06,0.00,280409,,,A*7E
$GPGGA,002220.500,3746.9655,S,14516.5409,E,1,6,1.21,231.7,M,-3.5,M,,*58
$GPRMC,002220.500,A,3746.9655,S,14516.5409,E,0.06,0.00,280409,,,A*73
$GPGGA,002221.000,3746.9654,S,14516.5407,E,1,6,1.21,231.6,M,-3.5,M,,*52
$GPRMC,002221.000,A,3746.9654,S,14516.5407,E,0.06,0.00,280409,,,A*78
$GPGGA,002221.500,3746.9651,S,14516.5406,E,1,6,1.21,231.6,M,-3.5,M,,*53
$GPRMC,002221.500,A,3746.9651,S,14516.5406,E,0.06,0.00,280409,,,A*79
$GPGGA,002222.000,3746.9649,S,14516.5405,E,1,6,1.21,231.5,M,-3.5,M,,*5C
$GPRMC,002222.000,A,3746.9649,S,14516.5405,E,0.06,0.00,280409,,,A*75
$GPGGA,002222.500,3746.9648,S,14516.5404,E,1,7,1.21,231.4,M,-3.5,M,,*59
$GPRMC,002222.500,A,3746.9648,S,14516.5404,E,0.06,0.00,280409,,,A*70
$GPGGA,002223.000,3746.9648,S,14516.5404,E,1,7,1.21,231.3,M,-3.5,M,,*5A
$GPRMC,002223.000,A,3746.9648,S,14516.5404,E,0.06,0.00,280409,,,A*74
$GPGGA,002223.500,3746.9650,S,14516.5404,E,1,7,1.21,231.2,M,-3.5,M,,*57
$GPRMC,002223.500,A,3746.9650,S,14516.5404,E,0.06,0.00,280409,,,A*78
$GPGGA,002224.000,3746.9652,S,14516.5404,E,1,7,1.21,231.1,M,-3.5,M,,*54
$GPRMC,002224.000,A,3746.9652,S,14516.5404,E,0.06,0.00,280409,,,A*78
$GPGGA,002224.500,3746.9654,S,14516.5404,E,1,8,1.10,231.0,M,-3.5,M,,*5B
$GPGSA,A,3,09,15,08,26,27,04,17,28,,,,,1.41,1.10,0.89*0B
$GPRMC,002224.500,A,3746.9654,S,14516.5404,E,0.06,0.00,280409,,,A*7B
$GPGGA,002225.000,3746.9656,S,14516.5406,E,1,8,1.10,230.9,M,-3.5,M,,*57
$GPRMC,002225.000,A,3746.9656,S,14516.5406,E,0.06,0.00,280409,,,A*7F
$GPGGA,002225.500,3746.9656,S,14516.5405,E,1,8,1.10,230.9,M,-3.5,M,,*51
$GPRMC,002225.500,A,3746.9656,S,14516.5405,E,0.06,0.00,280409,,,A*79
$GPGGA,002226.000,3746.9657,S,14516.5405,E,1,8,1.10,230.9,M,-3.5,M,,*56
$GPRMC,002226.000,A,3746.9657,S,14516.5405,E,0.06,0.00,280409,,,A*7E
$GPGGA,002226.500,3746.9658,S,14516.5405,E,1,8,1.10,230.9,M,-3.5,M,,*5C
$GPRMC,002226.500,A,3746.9658,S,14516.5405,E,0.06,0.00,280409,,,A*74
$GPGGA,002227.000,3746.9659,S,14516.5407,E,1,8,1.10,230.9,M,-3.5,M,,*5B
$GPRMC,002227.000,A,3746.9659,S,14516.5407,E,0.06,0.00,280409,,,A*73
$GPGGA,002227.500,3746.9660,S,14516.5407,E,1,8,1.10,230.8,M,-3.5,M,,*55
$GPRMC,002227.500,A,3746.9660,S,14516.5407,E,0.06,0.00,280409,,,A*7C
$GPGGA,002228.000,3746.9659,S,14516.5406,E,1,8,1.10,230.6,M,-3.5,M,,*5A
$GPRMC,002228.000,A,3746.9659,S,14516.5406,E,0.06,0.00,280409,,,A*7D
$GPGGA,002228.500,3746.9658,S,14516.5405,E,1,8,1.10,230.5,M,-3.5,M,,*5E
$GPRMC,002228.500,A,3746.9658,S,14516.5405,E,0.06,0.00,280409,,,A*7A
$GPGGA,002229.000,3746.9658,S,14516.5406,E,1,8,1.10,230.4,M,-3.5,M,,*58
$GPRMC,002229.000,A,3746.9658,S,14516.5406,E,0.06,0.00,280409,,,A*7D
$GPGGA,002229.500,3746.9659,S,14516.5406,E,1,8,1.10,230.4,M,-3.5,M,,*5C
$GPGSA,A,3,09,15,08,26,27,04,17,28,,,,,1.41,1.10,0.89*0B
$GPRMC,002229.500,A,3746.9659,S,14516.5406,E,0.06,0.00,280409,,,A*79
$GPGGA,002230.000,3746.9659,S,14516.5407,E,1,8,1.10,230.4,M,-3.5,M,,*50
$GPRMC,002230.000,A,3746.9659,S,14516.5407,E,0.06,0.00,280409,,,A*75
$GPGGA,002230.500,3746.9660,S,14516.5407,E,1,8,1.10,230.4,M,-3.5,M,,*5F
$GPRMC,002230.500,A,3746.9660,S,14516.5407,E,0.06,0.00,280409,,,A*7A
$GPGGA,002231.000,3746.9660,S,14516.5407,E,1,8,1.10,230.4,M,-3.5,M,,*5B
$GPRMC,002231.000,A,3746.9660,S,14516.5407,E,0.06,0.00,280409,,,A*7E
$GPGGA,002231.500,3746.9660,S,14516.5407,E,1,8,1.10,230.4,M,-3.5,M,,*5E
$GPRMC,002231.500,A,3746.9660,S,14516.5407,E,0.06,0.00,280409,,,A*7B
$GPGGA,002232.000,3746.9659,S,14516.5407,E,1,8,1.16,230.4,M,-3.5,M,,*54
$GPRMC,002232.000,A,3746.9659,S,14516.5407,E,0.06,0.00,280409,,,A*77
$GPGGA,002232.500,3746.9659,S,14516.5407,E,1,6,2.64,230.3,M,-3.5,M,,*5E
$GPRMC,002232.500,A,3746.9659,S,14516.5407,E,0.06,0.00,280409,,,A*72
$GPGGA,002233.000,3746.9659,S,14516.5407,E,1,6,2.65,230.3,M,-3.5,M,,*5B
$GPRMC,002233.000,A,3746.9659,S,14516.5407,E,0.06,0.00,280409,,,A*76
$GPGGA,002233.500,3746.9658,S,14516.5407,E,1,6,1.28,230.3,M,-3.5,M,,*55
$GPRMC,002233.500,A,3746.9658,S,14516.5407,E,0.06,0.00,280409,,,A*72
$GPGGA,002234.000,3746.9658,S,14516.5407,E,1,6,1.28,230.3,M,-3.5,M,,*57
$GPRMC,002234.000,A,3746.9658,S,14516.5407,E,0.06,0.00,280409,,,A*70
$GPGGA,002234.500,3746.9658,S,14516.5407,E,1,6,1.28,230.3,M,-3.5,M,,*52
$GPGSA,A,3,09,15,08,26,04,28,,,,,,,1.62,1.28,0.99*03
$GPRMC,002234.500,A,3746.9658,S,14516.5407,E,0.06,0.00,280409,,,A*75
$GPGGA,002235.000,3746.9658,S,14516.5407,E,1,6,2.64,230.3,M,-3.5,M,,*5D
$GPRMC,002235.000,A,3746.9658,S,14516.5407,E,0.06,0.00,280409,,,A*71
$GPGGA,002235.500,3746.9657,S,14516.5407,E,1,6,1.28,230.3,M,-3.5,M,,*5C
$GPRMC,002235.500,A,3746.9657,S,14516.5407,E,0.06,0.00,280409,,,A*7B
$GPGGA,002236.000,3746.9657,S,14516.5407,E,1,6,1.28,230.3,M,-3.5,M,,*5A
$GPRMC,002236.000,A,3746.9657,S,14516.5407,E,0.06,0.00,280409,,,A*7D
$GPGGA,002236.500,3746.9656,S,14516.5407,E,1,7,2.38,230.3,M,-3.5,M,,*5D
$GPRMC,002236.500,A,3746.9656,S,14516.5407,E,0.06,0.00,280409,,,A*79
$GPGGA,002237.000,3746.9655,S,14516.5407,E,1,7,2.38,230.4,M,-3.5,M,,*5D
$GPRMC,002237.000,A,3746.9655,S,14516.5407,E,0.06,0.00,280409,,,A*7E
$GPGGA,002237.500,3746.9654,S,14516.5410,E,1,7,2.38,230.5,M,-3.5,M,,*5E
$GPRMC,002237.500,A,3746.9654,S,14516.5410,E,0.06,0.00,280409,,,A*7C
$GPGGA,002238.000,3746.9653,S,14516.5411,E,1,6,2.65,230.6,M,-3.5,M,,*58
$GPRMC,002238.000,A,3746.9653,S,14516.5411,E,0.07,0.00,280409,,,A*71
$GPGGA,002238.500,3746.9652,S,14516.5413,E,1,6,2.65,230.7,M,-3.5,M,,*5F
$GPRMC,002238.500,A,3746.9652,S,14516.5413,E,0.07,0.00,280409,,,A*77
$GPGGA,002239.000,3746.9653,S,14516.5417,E,1,6,2.65,230.9,M,-3.5,M,,*50
$GPRMC,002239.000,A,3746.9653,S,14516.5417,E,0.07,0.00,280409,,,A*76
$GPGGA,002239.500,3746.9654,S,14516.5418,E,1,6,2.65,231.0,M,-3.5,M,,*55
$GPGSA,A,3,09,15,08,26,04,28,,,,,,,9.63,2.65,9.26*0D
$GPRMC,002239.500,A,3746.9654,S,14516.5418,E,0.07,0.00,280409,,,A*7B
$GPGGA,002240.000,3746.9653,S,14516.5419,E,1,6,2.65,231.0,M,-3.5,M,,*58
$GPRMC,002240.000,A,3746.9653,S,14516.5419,E,0.07,0.00,280409,,,A*76
$GPGGA,002240.500,3746.9653,S,14516.5420,E,1,6,2.65,231.1,M,-3.5,M,,*56
$GPRMC,002240.500,A,3746.9653,S,14516.5420,E,0.06,0.00,280409,,,A*78
$GPGGA,002241.000,3746.9653,S,14516.5421,E,1,6,2.65,231.1,M,-3.5,M,,*53
$GPRMC,002241.000,A,3746.9653,S,14516.5421,E,0.06,0.00,280409,,,A*7D
$GPGGA,002241.500,3746.9654,S,14516.5422,E,1,6,2.65,231.1,M,-3.5,M,,*52
$GPRMC,002241.500,A,3746.9654,S,14516.5422,E,0.06,0.00,280409,,,A*7C
$GPGGA,002242.000,3746.9655,S,14516.5421,E,1,6,2.65,231.0,M,-3.5,M,,*57
$GPRMC,002242.000,A,3746.9655,S,14516.5421,E,0.06,0.00,280409,,,A*78
$GPGGA,002242.500,3746.9655,S,14516.5421,E,1,6,1.28,231.0,M,-3.5,M,,*58
$GPRMC,002242.500,A,3746.9655,S,14516.5421,E,0.06,0.00,280409,,,A*7D
$GPGGA,002243.000,3746.9655,S,14516.5423,E,1,6,1.28,231.0,M,-3.5,M,,*5E
$GPRMC,002243.000,A,3746.9655,S,14516.5423,E,0.06,0.00,280409,,,A*7B
$GPGGA,002243.500,3746.9655,S,14516.5423,E,1,6,1.28,231.0,M,-3.5,M,,*5B
$GPRMC,002243.500,A,3746.9655,S,14516.5423,E,0.06,0.00,280409,,,A*7E
$GPGGA,002244.000,3746.9656,S,14516.5423,E,1,6,1.28,231.0,M,-3.5,M,,*5A
$GPRMC,002244.000,A,3746.9656,S,14516.5423,E,0.06,0.00,280409,,,A*7F
$GPGGA,002244.500,3746.9656,S,14516.5423,E,1,6,1.13,231.0,M,-3.5,M,,*57
$GPGSA,A,3,09,15,08,26,04,28,,,,,,,1.48,1.13,0.96*0C
$GPRMC,002244.500,A,3746.9656,S,14516.5423,E,0.06,0.00,280409,,,A*7A
$GPGGA,002245.000,3746.9656,S,14516.5423,E,1,6,1.13,231.0,M,-3.5,M,,*53
$GPRMC,002245.000,A,3746.9656,S,14516.5423,E,0.06,0.00,280409,,,A*7E
$GPGGA,002245.500,3746.9655,S,14516.5424,E,1,7,1.11,231.0,M,-3.5,M,,*51
$GPRMC,002245.500,A,3746.9655,S,14516.5424,E,0.06,0.00,280409,,,A*7F
$GPGGA,002246.000,3746.9654,S,14516.5424,E,1,7,1.18,231.0,M,-3.5,M,,*5F
$GPRMC,002246.000,A,3746.9654,S,14516.5424,E,0.06,0.00,280409,,,A*78
$GPGGA,002246.500,3746.9651,S,14516.5422,E,1,6,1.18,230.8,M,-3.5,M,,*51
$GPRMC,002246.500,A,3746.9651,S,14516.5422,E,0.06,0.00,280409,,,A*7E
$GPGGA,002247.000,3746.9649,S,14516.5419,E,1,7,1.18,230.6,M,-3.5,M,,*5B
$GPRMC,002247.000,A,3746.9649,S,14516.5419,E,0.06,0.00,280409,,,A*7B
$GPGGA,002247.500,3746.9647,S,14516.5417,E,1,6,1.18,230.4,M,-3.5,M,,*5D
$GPRMC,002247.500,A,3746.9647,S,14516.5417,E,0.06,0.00,280409,,,A*7E
$GPGGA,002248.000,3746.9647,S,14516.5418,E,1,6,1.13,230.3,M,-3.5,M,,*54
$GPRMC,002248.000,A,3746.9647,S,14516.5418,E,0.06,0.00,280409,,,A*7B
$GPGGA,002248.500,3746.9647,S,14516.5418,E,1,6,1.13,230.2,M,-3.5,M,,*50
$GPRMC,002248.500,A,3746.9647,S,14516.5418,E,0.06,0.00,280409,,,A*7E
$GPGGA,002249.000,3746.9645,S,14516.5416,E,1,6,1.13,230.0,M,-3.5,M,,*5A
$GPRMC,002249.000,A,3746.9645,S,14516.5416,E,0.06,0.00,280409,,,A*76
$GPGGA,002249.500,3746.9643,S,14516.5414,E,1,7,1.11,229.9,M,-3.5,M,,*59
$GPGSA,A,3,09,15,08,26,27,04,28,,,,,,1.45,1.11,0.94*04
$GPRMC,002249.500,A,3746.9643,S,14516.5414,E,0.06,0.00,280409,,,A*77
$GPGGA,002250.000,3746.9643,S,14516.5413,E,1,7,1.11,229.9,M,-3.5,M,,*53
$GPRMC,002250.000,A,3746.9643,S,14516.5413,E,0.06,0.00,280409,,,A*7D
$GPGGA,002250.500,3746.9644,S,14516.5413,E,1,6,1.13,229.9,M,-3.5,M,,*52
$GPRMC,002250.500,A,3746.9644,S,14516.5413,E,0.06,0.00,280409,,,A*7F
$GPGGA,002251.000,3746.9644,S,14516.5412,E,1,6,1.13,229.9,M,-3.5,M,,*57
$GPRMC,002251.000,A,3746.9644,S,14516.5412,E,0.06,0.00,280409,,,A*7A
$GPGGA,002251.500,3746.9643,S,14516.5412,E,1,6,1.13,229.9,M,-3.5,M,,*55
$GPRMC,002251.500,A,3746.9643,S,14516.5412,E,0.06,0.00,280409,,,A*78
$GPGGA,002252.000,3746.9640,S,14516.5410,E,1,6,1.18,229.8,M,-3.5,M,,*58
$GPRMC,002252.000,A,3746.9640,S,14516.5410,E,0.06,0.00,280409,,,A*7F
$GPGGA,002252.500,3746.9639,S,14516.5412,E,1,6,1.18,229.8,M,-3.5,M,,*51
$GPRMC,002252.500,A,3746.9639,S,14516.5412,E,0.06,0.00,280409,,,A*76
$GPGGA,002253.000,3746.9638,S,14516.5411,E,1,6,1.18,229.7,M,-3.5,M,,*58
$GPRMC,002253.000,A,3746.9638,S,14516.5411,E,0.06,0.00,280409,,,A*70
$GPGGA,002253.500,3746.9636,S,14516.5410,E,1,6,1.18,229.6,M,-3.5,M,,*53
$GPRMC,002253.500,A,3746.9636,S,14516.5410,E,0.06,0.00,280409,,,A*7A
$GPGGA,002254.000,3746.9635,S,14516.5408,E,1,6,1.13,229.5,M,-3.5,M,,*53
$GPRMC,002254.000,A,3746.9635,S,14516.5408,E,0.06,0.00,280409,,,A*72
$GPGGA,002254.500,3746.9635,S,14516.5406,E,1,6,1.13,229.3,M,-3.5,M,,*5E
$GPGSA,A,3,09,15,08,26,04,28,,,,,,,1.48,1.13,0.96*0C
$GPRMC,002254.500,A,3746.9635,S,14516.5406,E,0.06,0.00,280409,,,A*79
$GPGGA,002255.000,3746.9634,S,14516.5404,E,1,7,1.13,229.3,M,-3.5,M,,*58
$GPRMC,002255.000,A,3746.9634,S,14516.5404,E,0.06,0.00,280409,,,A*7E
$GPGGA,002255.500,3746.9631,S,14516.5403,E,1,7,1.13,229.2,M,-3.5,M,,*5E
$GPRMC,002255.500,A,3746.9631,S,14516.5403,E,0.06,0.00,280409,,,A*79
$GPGGA,002256.000,3746.9631,S,14516.5402,E,1,7,1.13,229.2,M,-3.5,M,,*59
$GPRMC,002256.000,A,3746.9631,S,14516.5402,E,0.06,0.00,280409,,,A*7E
$GPGGA,002256.500,3746.9631,S,14516.5403,E,1,7,1.13,229.2,M,-3.5,M,,*5D
$GPRMC,002256.500,A,3746.9631,S,14516.5403,E,0.06,0.00,280409,,,A*7A
$GPGGA,002257.000,3746.9630,S,14516.5404,E,1,8,1.10,229.2,M,-3.5,M,,*53
$GPRMC,002257.000,A,3746.9630,S,14516.5404,E,0.06,0.00,280409,,,A*78
$GPGGA,002257.500,3746.9629,S,14516.5405,E,1,8,1.10,229.2,M,-3.5,M,,*5F
$GPRMC,002257.500,A,3746.9629,S,14516.5405,E,0.06,0.00,280409,,,A*74
$GPGGA,002258.000,3746.9629,S,14516.5408,E,1,8,1.10,229.3,M,-3.5,M,,*59
$GPRMC,002258.000,A,3746.9629,S,14516.5408,E,0.06,0.00,280409,,,A*73
$GPGGA,002258.500,3746.9629,S,14516.5410,E,1,7,1.13,229.3,M,-3.5,M,,*59
$GPRMC,002258.500,A,3746.9629,S,14516.5410,E,0.06,0.00,280409,,,A*7F
$GPGGA,002259.000,3746.9629,S,14516.5410,E,1,7,1.13,229.3,M,-3.5,M,,*5D
$GPRMC,002259.000,A,3746.9629,S,14516.5410,E,0.06,0.00,280409,,,A*7B
$GPGGA,002259.500,3746.9629,S,14516.5409,E,1,8,1.10,229.2,M,-3.5,M,,*5D
$GPGSA,A,3,09,15,08,26,27,04,17,28,,,,,1.41,1.10,0.89*0B
$GPRMC,002259.500,A,3746.9629,S,14516.5409,E,0.06,0.00,280409,,,A*76
$GPGGA,002300.000,3746.9629,S,14516.5409,E,1,8,1.10,229.2,M,-3.5,M,,*55
$GPRMC,002300.000,A,3746.9629,S,14516.5409,E,0.06,0.00,280409,,,A*7E
$GPGGA,002300.500,3746.9629,S,14516.5408,E,1,8,1.10,229.2,M,-3.5,M,,*51
$GPRMC,002300.500,A,3746.9629,S,14516.5408,E,0.06,0.00,280409,,,A*7A
$GPGGA,002301.000,3746.9628,S,14516.5408,E,1,8,1.10,229.2,M,-3.5,M,,*54
$GPRMC,002301.000,A,3746.9628,S,14516.5408,E,0.06,0.00,280409,,,A*7F
$GPGGA,002301.500,3746.9628,S,14516.5407,E,1,8,1.10,229.2,M,-3.5,M,,*5E
$GPRMC,002301.500,A,3746.9628,S,14516.5407,E,0.06,0.00,280409,,,A*75
$GPGGA,002302.000,3746.9628,S,14516.5406,E,1,8,1.10,229.2,M,-3.5,M,,*59
$GPRMC,002302.000,A,3746.9628,S,14516.5406,E,0.06,0.00,280409,,,A*72
$GPGGA,002302.500,3746.9627,S,14516.5406,E,1,8,1.10,229.2,M,-3.5,M,,*53
$GPRMC,002302.500,A,3746.9627,S,14516.5406,E,0.06,0.00,280409,,,A*78
$GPGGA,002303.000,3746.9627,S,14516.5406,E,1,8,1.10,229.2,M,-3.5,M,,*57
$GPRMC,002303.000,A,3746.9627,S,14516.5406,E,0.06,0.00,280409,,,A*7C
$GPGGA,002303.500,3746.9626,S,14516.5406,E,1,8,1.16,229.2,M,-3.5,M,,*55
$GPRMC,002303.500,A,3746.9626,S,14516.5406,E,0.06,0.00,280409,,,A*78
$GPGGA,002304.000,3746.9625,S,14516.5406,E,1,8,1.16,229.2,M,-3.5,M,,*54
$GPRMC,002304.000,A,3746.9625,S,14516.5406,E,0.06,0.00,280409,,,A*79
$GPGGA,002304.500,3746.9625,S,14516.5406,E,1,8,1.16,229.2,M,-3.5,M,,*51
$GPGSA,A,3,09,15,08,26,27,04,17,28,,,,,2.24,1.16,1.92*06
$GPRMC,002304.500,A,3746.9625,S,14516.5406,E,0.06,0.00,280409,,,A*7C
$GPGGA,002305.000,3746.9624,S,14516.5405,E,1,7,1.18,229.2,M,-3.5,M,,*56
$GPRMC,002305.000,A,3746.9624,S,14516.5405,E,0.06,0.00,280409,,,A*7A
$GPGGA,002305.500,3746.9623,S,14516.5405,E,1,8,1.16,229.2,M,-3.5,M,,*55
$GPRMC,002305.500,A,3746.9623,S,14516.5405,E,0.06,0.00,280409,,,A*78
$GPGGA,002306.000,3746.9623,S,14516.5405,E,1,8,1.16,229.2,M,-3.5,M,,*53
$GPRMC,002306.000,A,3746.9623,S,14516.5405,E,0.06,0.00,280409,,,A*7E
$GPGGA,002306.500,3746.9622,S,14516.5406,E,1,8,1.16,229.2,M,-3.5,M,,*54
$GPRMC,002306.500,A,3746.9622,S,14516.5406,E,0.06,0.00,280409,,,A*79
$GPGGA,002307.000,3746.9622,S,14516.5406,E,1,8,1.10,229.2,M,-3.5,M,,*56
$GPRMC,002307.000,A,3746.9622,S,14516.5406,E,0.06,0.00,280409,,,A*7D
$GPGGA,002307.500,3746.9622,S,14516.5406,E,1,8,1.10,229.2,M,-3.5,M,,*53
$GPRMC,002307.500,A,3746.9622,S,14516.5406,E,0.06,0.00,280409,,,A*78
$GPGGA,002308.000,3746.9621,S,14516.5406,E,1,8,1.10,229.2,M,-3.5,M,,*5A
$GPRMC,002308.000,A,3746.9621,S,14516.5406,E,0.06,0.00,280409,,,A*71
$GPGGA,002308.500,3746.9621,S,14516.5407,E,1,8,1.16,229.2,M,-3.5,M,,*58
$GPRMC,002308.500,A,3746.9621,S,14516.5407,E,0.06,0.00,280409,,,A*75
$GPGGA,002309.000,3746.9621,S,14516.5407,E,1,8,1.10,229.2,M,-3.5,M,,*5A
$GPRMC,002309.000,A,3746.9621,S,14516.5407,E,0.06,0.00,280409,,,A*71
$GPGGA,002309.500,3746.9620,S,14516.5407,E,1,8,1.16,229.2,M,-3.5,M,,*58
$GPGSA,A,3,09,15,08,26,27,04,17,28,,,,,2.24,1.16,1.92*06
$GPRMC,002309.500,A,3746.9620,S,14516.5407,E,0.06,0.00,280409,,,A*75
$GPGGA,002310.000,3746.9620,S,14516.5407,E,1,8,1.16,229.2,M,-3.5,M,,*55
$GPRMC,002310.000,A,3746.9620,S,14516.5407,E,0.06,0.00,280409,,,A*78
$GPGGA,002310.500,3746.9620,S,14516.5407,E,1,7,1.18,229.2,M,-3.5,M,,*51
$GPRMC,002310.500,A,3746.9620,S,14516.5407,E,0.06,0.00,280409,,,A*7D
$GPGGA,002311.000,3746.9619,S,14516.5407,E,1,7,1.13,229.2,M,-3.5,M,,*54
$GPRMC,002311.000,A,3746.9619,S,14516.5407,E,0.06,0.00,280409,,,A*73
$GPGGA,002311.500,3746.9619,S,14516.5407,E,1,7,1.13,229.2,M,-3.5,M,,*51
$GPRMC,002311.500,A,3746.9619,S,14516.5407,E,0.06,0.00,280409,,,A*76
$GPGGA,002312.000,3746.9619,S,14516.5407,E,1,7,1.18,229.2,M,-3.5,M,,*5C
$GPRMC,002312.000,A,3746.9619,S,14516.5407,E,0.06,0.00,280409,,,A*70
$GPGGA,002312.500,3746.9618,S,14516.5407,E,1,7,1.18,229.2,M,-3.5,M,,*58
$GPRMC,002312.500,A,3746.9618,S,14516.5407,E,0.06,0.00,280409,,,A*74
$GPGGA,002313.000,3746.9618,S,14516.5407,E,1,7,1.18,229.2,M,-3.5,M,,*5C
$GPRMC,002313.000,A,3746.9618,S,14516.5407,E,0.06,0.00,280409,,,A*70
$GPGGA,002313.500,3746.9617,S,14516.5407,E,1,7,1.18,229.2,M,-3.5,M,,*56
$GPRMC,002313.500,A,3746.9617,S,14516.5407,E,0.06,0.00,280409,,,A*7A
$GPGGA,002314.000,3746.9617,S,14516.5408,E,1,7,1.17,229.2,M,-3.5,M,,*54
$GPRMC,002314.000,A,3746.9617,S,14516.5408,E,0.06,0.00,280409,,,A*77
$GPGGA,002314.500,3746.9616,S,14516.5408,E,1,7,1.17,229.2,M,-3.5,M,,*50
$GPGSA,A,3,09,15,08,26,04,17,28,,,,,,2.34,1.17,2.03*08
$GPRMC,002314.500,A,3746.9616,S,14516.5408,E,0.06,0.00,280409,,,A*73
$GPGGA,002315.000,3746.9615,S,14516.5408,E,1,7,1.17,229.2,M,-3.5,M,,*57
$GPRMC,002315.000,A,3746.9615,S,14516.5408,E,0.06,0.00,280409,,,A*74
