$GPGGA,113627.00,5139.83616,N,00720.65450,E,1,09,0.99,44.7,M,46.4,M,,*67
$GPGGA,113627.25,5139.83617,N,00720.65450,E,1,09,0.99,44.7,M,46.4,M,,*61
$GPGGA,113627.50,5139.83619,N,00720.65449,E,1,09,0.99,44.7,M,46.4,M,,*65
$GPGGA,113627.75,5139.83620,N,00720.65449,E,1,09,0.99,44.7,M,46.4,M,,*68
$GPGGA,113628.00,5139.83620,N,00720.65448,E,1,09,0.99,44.7,M,46.4,M,,*64
$GPGGA,113628.25,5139.83621,N,00720.65447,E,1,09,0.99,44.7,M,46.4,M,,*6D
$GPGGA,113628.50,5139.83621,N,00720.65445,E,1,09,0.99,44.7,M,46.4,M,,*6D
$GPGGA,113628.75,5139.83622,N,00720.65442,E,1,09,0.99,44.7,M,46.4,M,,*6E
$GPGGA,113629.00,5139.83622,N,00720.65439,E,1,09,0.99,44.7,M,46.4,M,,*61
$GPGGA,113629.25,5139.83623,N,00720.65437,E,1,09,0.99,44.7,M,46.4,M,,*69
$GPGGA,113629.50,5139.83624,N,00720.65436,E,1,09,0.99,44.7,M,46.4,M,,*6D
$GPGGA,113629.75,5139.83624,N,00720.65434,E,1,09,0.99,44.7,M,46.4,M,,*68
$GPGGA,113630.00,5139.83625,N,00720.65432,E,1,09,0.99,44.7,M,46.4,M,,*65
$GPGGA,113630.25,5139.83626,N,00720.65428,E,1,09,0.99,44.7,M,46.4,M,,*6A
$GPGGA,113630.50,5139.83626,N,00720.65423,E,1,09,0.99,44.7,M,46.4,M,,*63
$GPGGA,113630.75,5139.83627,N,00720.65420,E,1,09,0.99,44.7,M,46.4,M,,*66
$GPGGA,113631.00,5139.83627,N,00720.65417,E,1,09,0.99,44.8,M,46.4,M,,*6E
$GPGGA,113631.25,5139.83627,N,00720.65415,E,1,09,0.99,44.8,M,46.4,M,,*6B
$GPGGA,113631.50,5139.83628,N,00720.65414,E,1,09,0.99,44.8,M,46.4,M,,*67
$GPGGA,113631.75,5139.83629,N,00720.65415,E,1,09,0.99,44.8,M,46.4,M,,*60
$GPGGA,113632.00,5139.83629,N,00720.65416,E,1,09,0.99,44.8,M,46.4,M,,*62
$GPGGA,113632.25,5139.83630,N,00720.65418,E,1,09,0.99,44.8,M,46.4,M,,*63
$GPGGA,113632.50,5139.83630,N,00720.65419,E,1,09,0.99,44.8,M,46.4,M,,*60
$GPGGA,113632.75,5139.83632,N,00720.65420,E,1,09,0.99,44.7,M,46.4,M,,*60
$GPGGA,113633.00,5139.83632,N,00720.65418,E,1,09,0.99,44.9,M,46.4,M,,*66
$GPGGA,113633.25,5139.83632,N,00720.65418,E,1,09,0.99,45.0,M,46.4,M,,*69
$GPGGA,113633.50,5139.83632,N,00720.65420,E,1,09,0.99,45.1,M,46.4,M,,*61
$GPGGA,113633.75,5139.83628,N,00720.65414,E,1,09,0.99,45.2,M,46.4,M,,*69
$GPGGA,113634.00,5139.83624,N,00720.65405,E,1,09,0.99,45.2,M,46.4,M,,*60
$GPGGA,113634.25,5139.83622,N,00720.65405,E,1,09,0.99,45.2,M,46.4,M,,*61
$GPGGA,113634.50,5139.83619,N,00720.65407,E,1,09,0.99,45.3,M,46.4,M,,*68
$GPGGA,113634.75,5139.83617,N,00720.65416,E,1,09,0.99,45.3,M,46.4,M,,*61
$GPGGA,113635.00,5139.83616,N,00720.65415,E,1,09,0.99,44.9,M,46.4,M,,*6B
$GPGGA,113635.25,5139.83617,N,00720.65425,E,1,08,1.03,44.8,M,46.4,M,,*6C
$GPGGA,113635.50,5139.83617,N,00720.65427,E,1,09,0.99,44.7,M,46.4,M,,*60
$GPGGA,113635.75,5139.83618,N,00720.65426,E,1,09,0.99,44.8,M,46.4,M,,*66
$GPGGA,113636.00,5139.83618,N,00720.65423,E,1,09,0.99,44.9,M,46.4,M,,*63
$GPGGA,113636.25,5139.83618,N,00720.65420,E,1,09,0.99,45.1,M,46.4,M,,*6E
$GPGGA,113636.50,5139.83618,N,00720.65416,E,1,09,0.99,45.3,M,46.4,M,,*6B
$GPGGA,113636.75,5139.83619,N,00720.65417,E,1,09,0.99,45.5,M,46.4,M,,*6A
$GPGGA,113637.00,5139.83619,N,00720.65418,E,1,09,0.99,45.6,M,46.4,M,,*65
$GPGGA,113637.25,5139.83621,N,00720.65415,E,1,09,0.99,45.8,M,46.4,M,,*6A
$GPGGA,113637.50,5139.83621,N,00720.65411,E,1,09,0.99,46.0,M,46.4,M,,*67
$GPGGA,113637.75,5139.83622,N,00720.65403,E,1,09,0.99,46.2,M,46.4,M,,*62
$GPGGA,113638.00,5139.83622,N,00720.65395,E,1,09,0.99,46.4,M,46.4,M,,*61
$GPGGA,113638.25,5139.83623,N,00720.65388,E,1,09,0.99,46.6,M,46.4,M,,*69
$GPGGA,113638.50,5139.83624,N,00720.65382,E,1,09,0.99,46.8,M,46.4,M,,*68
$GPGGA,113638.75,5139.83625,N,00720.65376,E,1,09,0.99,47.0,M,46.4,M,,*6C
$GPGGA,113639.00,5139.83627,N,00720.65368,E,1,09,0.99,47.2,M,46.4,M,,*60
$GPGGA,113639.25,5139.83628,N,00720.65362,E,1,09,0.99,47.4,M,46.4,M,,*64
$GPGGA,113639.50,5139.83629,N,00720.65357,E,1,09,0.99,47.6,M,46.4,M,,*63
$GPGGA,113639.75,5139.83631,N,00720.65357,E,1,09,0.99,47.7,M,46.4,M,,*6C
$GPGGA,113640.00,5139.83630,N,00720.65364,E,1,09,0.99,47.9,M,46.4,M,,*6F
$GPGGA,113640.25,5139.83633,N,00720.65348,E,1,09,0.99,48.6,M,46.4,M,,*65
$GPGGA,113640.50,5139.83635,N,00720.65346,E,1,09,0.99,49.0,M,46.4,M,,*68
$GPGGA,113640.75,5139.83640,N,00720.65354,E,1,08,1.03,49.1,M,46.4,M,,*6C
$GPGGA,113641.00,5139.83636,N,00720.65372,E,1,09,0.99,49.0,M,46.4,M,,*68
$GPGGA,113641.25,5139.83627,N,00720.65392,E,1,09,0.99,48.8,M,46.4,M,,*68
$GPGGA,113641.50,5139.83614,N,00720.65387,E,1,09,0.99,48.8,M,46.4,M,,*6E
$GPGGA,113641.75,5139.83603,N,00720.65384,E,1,09,0.99,48.9,M,46.4,M,,*6D
$GPGGA,113642.00,5139.83593,N,00720.65388,E,1,09,0.99,48.9,M,46.4,M,,*6A
$GPGGA,113642.25,5139.83580,N,00720.65390,E,1,09,0.99,48.9,M,46.4,M,,*66
$GPGGA,113642.50,5139.83570,N,00720.65398,E,1,09,0.99,48.9,M,46.4,M,,*63
$GPGGA,113642.75,5139.83556,N,00720.65401,E,1,09,0.99,48.9,M,46.4,M,,*67
$GPGGA,113643.00,5139.83540,N,00720.65408,E,1,08,1.13,48.9,M,46.4,M,,*68
$GPGGA,113643.25,5139.83525,N,00720.65418,E,1,09,0.99,48.8,M,46.4,M,,*6E
$GPGGA,113643.50,5139.83511,N,00720.65429,E,1,09,0.99,48.8,M,46.4,M,,*69
$GPGGA,113643.75,5139.83493,N,00720.65434,E,1,09,0.99,48.9,M,46.4,M,,*68
$GPGGA,113644.00,5139.83474,N,00720.65442,E,1,09,0.99,48.9,M,46.4,M,,*65
$GPGGA,113644.25,5139.83456,N,00720.65452,E,1,08,1.03,49.0,M,46.4,M,,*68
$GPGGA,113644.50,5139.83443,N,00720.65461,E,1,08,1.03,49.1,M,46.4,M,,*6F
$GPGGA,113644.75,5139.83431,N,00720.65464,E,1,09,0.99,49.2,M,46.4,M,,*68
$GPGGA,113645.00,5139.83421,N,00720.65471,E,1,09,0.99,49.3,M,46.4,M,,*6F
$GPGGA,113645.25,5139.83414,N,00720.65480,E,1,09,0.99,49.4,M,46.4,M,,*67
$GPGGA,113645.50,5139.83402,N,00720.65490,E,1,09,0.99,49.5,M,46.4,M,,*62
$GPGGA,113645.75,5139.83386,N,00720.65504,E,1,09,0.99,49.7,M,46.4,M,,*60
$GPGGA,113646.00,5139.83373,N,00720.65536,E,1,09,0.99,49.5,M,46.4,M,,*68
$GPGGA,113646.25,5139.83361,N,00720.65554,E,1,09,0.99,49.5,M,46.4,M,,*68
$GPGGA,113646.50,5139.83348,N,00720.65576,E,1,09,0.99,49.5,M,46.4,M,,*61
$GPGGA,113646.75,5139.83336,N,00720.65594,E,1,09,0.99,49.5,M,46.4,M,,*63
$GPGGA,113647.00,5139.83322,N,00720.65612,E,1,09,0.99,49.5,M,46.4,M,,*68
$GPGGA,113647.25,5139.83310,N,00720.65630,E,1,09,0.99,49.5,M,46.4,M,,*6E
$GPGGA,113647.50,5139.83299,N,00720.65645,E,1,09,0.99,49.6,M,46.4,M,,*6D
$GPGGA,113647.75,5139.83287,N,00720.65660,E,1,09,0.99,49.6,M,46.4,M,,*62
$GPGGA,113648.00,5139.83274,N,00720.65672,E,1,09,0.99,49.7,M,46.4,M,,*61
$GPGGA,113648.25,5139.83259,N,00720.65687,E,1,09,0.99,49.7,M,46.4,M,,*63
$GPGGA,113648.50,5139.83248,N,00720.65702,E,1,08,1.97,49.7,M,46.4,M,,*63
$GPGGA,113648.75,5139.83234,N,00720.65716,E,1,09,0.99,49.8,M,46.4,M,,*6B
$GPGGA,113649.00,5139.83215,N,00720.65724,E,1,09,0.99,50.0,M,46.4,M,,*6A
$GPGGA,113649.25,5139.83203,N,00720.65729,E,1,09,0.99,50.2,M,46.4,M,,*65
$GPGGA,113649.50,5139.83187,N,00720.65736,E,1,09,0.99,50.3,M,46.4,M,,*67
$GPGGA,113649.75,5139.83182,N,00720.65751,E,1,09,0.99,50.4,M,46.4,M,,*63
$GPGGA,113650.00,5139.83172,N,00720.65761,E,1,09,0.99,50.5,M,46.4,M,,*64
$GPGGA,113650.25,5139.83167,N,00720.65770,E,1,09,0.99,50.6,M,46.4,M,,*64
$GPGGA,113650.50,5139.83159,N,00720.65781,E,1,09,0.99,50.7,M,46.4,M,,*64
$GPGGA,113650.75,5139.83156,N,00720.65792,E,1,09,0.99,50.6,M,46.4,M,,*6F
$GPGGA,113651.00,5139.83152,N,00720.65797,E,1,09,0.99,50.4,M,46.4,M,,*6F
$GPGGA,113651.25,5139.83136,N,00720.65794,E,1,09,0.99,50.8,M,46.4,M,,*65
$GPGGA,113651.50,5139.83125,N,00720.65799,E,1,09,0.99,50.8,M,46.4,M,,*68
$GPGGA,113651.75,5139.83122,N,00720.65801,E,1,09,0.99,50.6,M,46.4,M,,*68
$GPGGA,113652.00,5139.83118,N,00720.65790,E,1,09,0.99,50.5,M,46.4,M,,*64
$GPGGA,113652.25,5139.83116,N,00720.65784,E,1,09,0.99,50.5,M,46.4,M,,*68
$GPGGA,113652.50,5139.83112,N,00720.65780,E,1,09,0.99,50.4,M,46.4,M,,*6B
$GPGGA,113652.75,5139.83109,N,00720.65773,E,1,09,0.99,50.4,M,46.4,M,,*6A
$GPGGA,113653.00,5139.83103,N,00720.65763,E,1,09,0.99,50.3,M,46.4,M,,*65
$GPGGA,113653.25,5139.83096,N,00720.65756,E,1,09,0.99,50.2,M,46.4,M,,*68
$GPGGA,113653.50,5139.83087,N,00720.65749,E,1,09,0.99,50.2,M,46.4,M,,*64
$GPGGA,113653.75,5139.83076,N,00720.65740,E,1,09,0.99,50.2,M,46.4,M,,*64
$GPGGA,113654.00,5139.83071,N,00720.65726,E,1,09,0.99,49.9,M,46.4,M,,*65
$GPGGA,113654.25,5139.83057,N,00720.65711,E,1,09,0.99,49.9,M,46.4,M,,*62
$GPGGA,113654.50,5139.83043,N,00720.65702,E,1,09,0.99,49.8,M,46.4,M,,*66
$GPGGA,113654.75,5139.83033,N,00720.65696,E,1,09,0.99,49.6,M,46.4,M,,*64
$GPGGA,113655.00,5139.83020,N,00720.65688,E,1,09,0.99,49.5,M,46.4,M,,*69
$GPGGA,113655.25,5139.83008,N,00720.65681,E,1,09,0.99,49.5,M,46.4,M,,*6D
$GPGGA,113655.50,5139.82995,N,00720.65667,E,1,09,0.99,49.5,M,46.4,M,,*6B
$GPGGA,113655.75,5139.82986,N,00720.65652,E,1,09,0.99,49.5,M,46.4,M,,*68
$GPGGA,113656.00,5139.82976,N,00720.65643,E,1,09,0.99,49.4,M,46.4,M,,*67
$GPGGA,113656.25,5139.82963,N,00720.65636,E,1,09,0.99,49.4,M,46.4,M,,*66
$GPGGA,113656.50,5139.82951,N,00720.65631,E,1,09,0.99,49.3,M,46.4,M,,*65
$GPGGA,113656.75,5139.82938,N,00720.65615,E,1,09,0.99,49.3,M,46.4,M,,*6B
$GPGGA,113657.00,5139.82924,N,00720.65598,E,1,09,0.99,49.3,M,46.4,M,,*63
$GPGGA,113657.25,5139.82911,N,00720.65584,E,1,09,0.99,49.3,M,46.4,M,,*6F
$GPGGA,113657.50,5139.82899,N,00720.65570,E,1,09,0.99,49.4,M,46.4,M,,*60
$GPGGA,113657.75,5139.82888,N,00720.65556,E,1,09,0.99,49.3,M,46.4,M,,*64
$GPGGA,113658.00,5139.82877,N,00720.65532,E,1,09,0.99,49.4,M,46.4,M,,*6C
$GPGGA,113658.25,5139.82866,N,00720.65514,E,1,09,0.99,49.3,M,46.4,M,,*68
$GPGGA,113658.50,5139.82856,N,00720.65501,E,1,08,1.04,49.3,M,46.4,M,,*69
$GPGGA,113658.75,5139.82845,N,00720.65487,E,1,09,0.99,49.3,M,46.4,M,,*67
$GPGGA,113659.00,5139.82836,N,00720.65467,E,1,08,1.03,49.4,M,46.4,M,,*6A
$GPGGA,113659.25,5139.82827,N,00720.65449,E,1,09,0.99,49.4,M,46.4,M,,*62
$GPGGA,113659.50,5139.82816,N,00720.65433,E,1,09,0.99,49.4,M,46.4,M,,*6F
$GPGGA,113659.75,5139.82805,N,00720.65416,E,1,09,0.99,49.4,M,46.4,M,,*6D
$GPGGA,113700.00,5139.82793,N,00720.65396,E,1,09,0.99,49.5,M,46.4,M,,*6C
$GPGGA,113700.25,5139.82781,N,00720.65376,E,1,09,0.99,49.5,M,46.4,M,,*66
$GPGGA,113700.50,5139.82771,N,00720.65357,E,1,09,0.99,49.6,M,46.4,M,,*6B
$GPGGA,113700.75,5139.82761,N,00720.65343,E,1,09,0.99,49.6,M,46.4,M,,*68
$GPGGA,113701.00,5139.82751,N,00720.65328,E,1,09,0.99,49.6,M,46.4,M,,*65
$GPGGA,113701.25,5139.82741,N,00720.65313,E,1,09,0.99,49.6,M,46.4,M,,*6B
$GPGGA,113701.50,5139.82732,N,00720.65295,E,1,09,0.99,49.6,M,46.4,M,,*62
$GPGGA,113701.75,5139.82721,N,00720.65280,E,1,09,0.99,49.6,M,46.4,M,,*63
$GPGGA,113702.00,5139.82709,N,00720.65267,E,1,09,0.99,49.6,M,46.4,M,,*61
$GPGGA,113702.25,5139.82696,N,00720.65254,E,1,09,0.99,49.6,M,46.4,M,,*61
$GPGGA,113702.50,5139.82684,N,00720.65248,E,1,09,0.99,49.5,M,46.4,M,,*6E
$GPGGA,113702.75,5139.82672,N,00720.65237,E,1,08,1.04,49.5,M,46.4,M,,*6C
$GPGGA,113703.00,5139.82661,N,00720.65227,E,1,09,0.99,49.5,M,46.4,M,,*68
$GPGGA,113703.25,5139.82652,N,00720.65211,E,1,09,0.99,49.4,M,46.4,M,,*6B
$GPGGA,113703.50,5139.82640,N,00720.65185,E,1,09,0.99,49.4,M,46.4,M,,*64
$GPGGA,113703.75,5139.82629,N,00720.65173,E,1,09,0.99,49.4,M,46.4,M,,*65
$GPGGA,113704.00,5139.82619,N,00720.65160,E,1,09,0.99,49.4,M,46.4,M,,*61
$GPGGA,113704.25,5139.82609,N,00720.65145,E,1,09,0.99,49.4,M,46.4,M,,*60
$GPGGA,113704.50,5139.82598,N,00720.65133,E,1,09,0.99,49.3,M,46.4,M,,*6F
$GPGGA,113704.75,5139.82587,N,00720.65121,E,1,09,0.99,49.3,M,46.4,M,,*65
$GPGGA,113705.00,5139.82576,N,00720.65109,E,1,09,0.99,49.3,M,46.4,M,,*62
$GPGGA,113705.25,5139.82563,N,00720.65100,E,1,09,0.99,49.2,M,46.4,M,,*69
$GPGGA,113705.50,5139.82549,N,00720.65084,E,1,09,0.99,49.1,M,46.4,M,,*6D
$GPGGA,113705.75,5139.82537,N,00720.65067,E,1,09,0.99,49.1,M,46.4,M,,*6E
$GPGGA,113706.00,5139.82525,N,00720.65051,E,1,09,0.99,49.1,M,46.4,M,,*69
$GPGGA,113706.25,5139.82514,N,00720.65040,E,1,09,0.99,49.1,M,46.4,M,,*6C
$GPGGA,113706.50,5139.82502,N,00720.65027,E,1,09,0.99,49.0,M,46.4,M,,*69
$GPGGA,113706.75,5139.82491,N,00720.65010,E,1,09,0.99,49.0,M,46.4,M,,*61
$GPGGA,113707.00,5139.82480,N,00720.64993,E,1,09,0.99,49.0,M,46.4,M,,*61
$GPGGA,113707.25,5139.82468,N,00720.64976,E,1,08,1.04,49.0,M,46.4,M,,*6F
$GPGGA,113707.50,5139.82454,N,00720.64966,E,1,09,0.99,49.0,M,46.4,M,,*67
$GPGGA,113707.75,5139.82439,N,00720.64959,E,1,09,0.99,49.0,M,46.4,M,,*67
$GPGGA,113708.00,5139.82430,N,00720.64945,E,1,09,0.99,49.1,M,46.4,M,,*6F
$GPGGA,113708.25,5139.82416,N,00720.64935,E,1,09,0.99,49.1,M,46.4,M,,*6B
$GPGGA,113708.50,5139.82402,N,00720.64929,E,1,09,0.99,49.2,M,46.4,M,,*62
$GPGGA,113708.75,5139.82390,N,00720.64924,E,1,09,0.99,49.2,M,46.4,M,,*64
$GPGGA,113709.00,5139.82377,N,00720.64912,E,1,09,0.99,49.2,M,46.4,M,,*6B
$GPGGA,113709.25,5139.82364,N,00720.64900,E,1,09,0.99,49.2,M,46.4,M,,*6D
$GPGGA,113709.50,5139.82351,N,00720.64884,E,1,09,0.99,49.3,M,46.4,M,,*65
$GPGGA,113709.75,5139.82339,N,00720.64868,E,1,09,0.99,49.3,M,46.4,M,,*6E
$GPGGA,113710.00,5139.82327,N,00720.64852,E,1,09,0.99,49.4,M,46.4,M,,*65
$GPGGA,113710.25,5139.82317,N,00720.64835,E,1,09,0.99,49.4,M,46.4,M,,*60
$GPGGA,113710.50,5139.82303,N,00720.64821,E,1,09,0.99,49.5,M,46.4,M,,*63
$GPGGA,113710.75,5139.82290,N,00720.64801,E,1,09,0.99,49.6,M,46.4,M,,*6E
$GPGGA,113711.00,5139.82280,N,00720.64787,E,1,09,0.99,49.6,M,46.4,M,,*6D
$GPGGA,113711.25,5139.82269,N,00720.64771,E,1,09,0.99,49.6,M,46.4,M,,*64
$GPGGA,113711.50,5139.82259,N,00720.64752,E,1,09,0.99,49.6,M,46.4,M,,*64
$GPGGA,113711.75,5139.82244,N,00720.64735,E,1,09,0.99,49.7,M,46.4,M,,*6F
$GPGGA,113712.00,5139.82230,N,00720.64725,E,1,09,0.99,49.8,M,46.4,M,,*63
$GPGGA,113712.25,5139.82220,N,00720.64718,E,1,09,0.99,49.8,M,46.4,M,,*6B
$GPGGA,113712.50,5139.82201,N,00720.64723,E,1,09,0.99,50.0,M,46.4,M,,*62
$GPGGA,113712.75,5139.82198,N,00720.64735,E,1,09,0.99,49.9,M,46.4,M,,*60
$GPGGA,113713.00,5139.82194,N,00720.64748,E,1,09,0.99,49.9,M,46.4,M,,*65
$GPGGA,113713.25,5139.82190,N,00720.64761,E,1,09,0.99,50.1,M,46.4,M,,*6D
$GPGGA,113713.50,5139.82192,N,00720.64779,E,1,09,0.99,50.2,M,46.4,M,,*67
$GPGGA,113713.75,5139.82195,N,00720.64788,E,1,09,0.99,50.3,M,46.4,M,,*68
$GPGGA,113714.00,5139.82198,N,00720.64790,E,1,09,0.99,50.6,M,46.4,M,,*6C
$GPGGA,113714.25,5139.82205,N,00720.64782,E,1,09,0.99,50.7,M,46.4,M,,*6E
$GPGGA,113714.50,5139.82212,N,00720.64772,E,1,09,0.99,50.8,M,46.4,M,,*6A
$GPGGA,113714.75,5139.82218,N,00720.64762,E,1,09,0.99,50.8,M,46.4,M,,*66
$GPGGA,113715.00,5139.82225,N,00720.64750,E,1,09,0.99,50.9,M,46.4,M,,*6B
$GPGGA,113715.25,5139.82220,N,00720.64745,E,1,09,0.99,51.2,M,46.4,M,,*67
$GPGGA,113715.50,5139.82214,N,00720.64740,E,1,09,0.99,51.3,M,46.4,M,,*66
$GPGGA,113715.75,5139.82206,N,00720.64730,E,1,09,0.99,51.3,M,46.4,M,,*65
$GPGGA,113716.00,5139.82201,N,00720.64722,E,1,09,0.99,51.3,M,46.4,M,,*60
$GPGGA,113716.25,5139.82185,N,00720.64721,E,1,09,0.99,51.5,M,46.4,M,,*6D
$GPGGA,113716.50,5139.82176,N,00720.64718,E,1,09,0.99,51.7,M,46.4,M,,*6B
$GPGGA,113716.75,5139.82166,N,00720.64725,E,1,09,0.99,51.9,M,46.4,M,,*6D
$GPGGA,113717.00,5139.82154,N,00720.64728,E,1,09,0.99,52.0,M,46.4,M,,*68
$GPGGA,113717.25,5139.82142,N,00720.64738,E,1,09,0.99,52.1,M,46.4,M,,*68
$GPGGA,113717.50,5139.82142,N,00720.64755,E,1,09,0.99,51.8,M,46.4,M,,*6B
$GPGGA,113717.75,5139.82136,N,00720.64775,E,1,09,0.99,51.9,M,46.4,M,,*6C
$GPGGA,113718.00,5139.82139,N,00720.64791,E,1,09,0.99,51.8,M,46.4,M,,*65
$GPGGA,113718.25,5139.82144,N,00720.64810,E,1,09,0.99,51.7,M,46.4,M,,*61
$GPGGA,113718.50,5139.82151,N,00720.64829,E,1,09,0.99,51.7,M,46.4,M,,*6D
$GPGGA,113718.75,5139.82159,N,00720.64851,E,1,09,0.99,51.9,M,46.4,M,,*63
$GPGGA,113719.00,5139.82168,N,00720.64872,E,1,09,0.99,51.9,M,46.4,M,,*63
$GPGGA,113719.25,5139.82183,N,00720.64886,E,1,09,0.99,52.0,M,46.4,M,,*60
$GPGGA,113719.50,5139.82194,N,00720.64895,E,1,09,0.99,52.0,M,46.4,M,,*66
$GPGGA,113719.75,5139.82205,N,00720.64893,E,1,09,0.99,52.0,M,46.4,M,,*6C
$GPGGA,113720.00,5139.82218,N,00720.64887,E,1,09,0.99,52.0,M,46.4,M,,*6D
$GPGGA,113720.25,5139.82226,N,00720.64891,E,1,09,0.99,52.0,M,46.4,M,,*60
$GPGGA,113720.50,5139.82234,N,00720.64889,E,1,09,0.99,52.0,M,46.4,M,,*68
$GPGGA,113720.75,5139.82244,N,00720.64883,E,1,09,0.99,52.0,M,46.4,M,,*62
$GPGGA,113721.00,5139.82251,N,00720.64881,E,1,09,0.99,52.0,M,46.4,M,,*67
$GPGGA,113721.25,5139.82257,N,00720.64881,E,1,09,0.99,52.0,M,46.4,M,,*66
$GPGGA,113721.50,5139.82266,N,00720.64882,E,1,09,0.99,52.0,M,46.4,M,,*65
$GPGGA,113721.75,5139.82277,N,00720.64888,E,1,09,0.99,52.1,M,46.4,M,,*69
$GPGGA,113722.00,5139.82289,N,00720.64897,E,1,09,0.99,52.0,M,46.4,M,,*66
$GPGGA,113722.25,5139.82293,N,00720.64901,E,1,09,0.99,52.0,M,46.4,M,,*64
$GPGGA,113722.50,5139.82312,N,00720.64908,E,1,09,0.99,52.0,M,46.4,M,,*67
$GPGGA,113722.75,5139.82345,N,00720.64912,E,1,09,0.99,51.9,M,46.4,M,,*63
$GPGGA,113723.00,5139.82365,N,00720.64913,E,1,09,0.99,51.9,M,46.4,M,,*63
$GPGGA,113723.25,5139.82379,N,00720.64917,E,1,09,0.99,51.9,M,46.4,M,,*6D
$GPGGA,113723.50,5139.82395,N,00720.64913,E,1,09,0.99,51.8,M,46.4,M,,*68
$GPGGA,113723.75,5139.82411,N,00720.64911,E,1,09,0.99,51.8,M,46.4,M,,*66
$GPGGA,113724.00,5139.82426,N,00720.64906,E,1,09,0.99,51.8,M,46.4,M,,*61
$GPGGA,113724.25,5139.82444,N,00720.64906,E,1,09,0.99,51.8,M,46.4,M,,*62
$GPGGA,113724.50,5139.82440,N,00720.64906,E,1,09,0.99,51.8,M,46.4,M,,*64
$GPGGA,113724.75,5139.82455,N,00720.64909,E,1,09,0.99,51.8,M,46.4,M,,*68
$GPGGA,113725.00,5139.82471,N,00720.64916,E,1,08,1.09,51.9,M,46.4,M,,*6B
$GPGGA,113725.25,5139.82479,N,00720.64919,E,1,08,1.09,51.9,M,46.4,M,,*6B
$GPGGA,113725.50,5139.82491,N,00720.64917,E,1,08,1.09,51.9,M,46.4,M,,*61
$GPGGA,113725.75,5139.82500,N,00720.64919,E,1,09,0.99,51.9,M,46.4,M,,*68
$GPGGA,113726.00,5139.82510,N,00720.64921,E,1,09,0.99,51.9,M,46.4,M,,*63
$GPGGA,113726.25,5139.82527,N,00720.64923,E,1,09,0.99,51.9,M,46.4,M,,*62
$GPGGA,113726.50,5139.82544,N,00720.64923,E,1,09,0.99,52.0,M,46.4,M,,*6F
$GPGGA,113726.75,5139.82570,N,00720.64923,E,1,09,1.00,52.0,M,46.4,M,,*6E
$GPGGA,113727.00,5139.82587,N,00720.64923,E,1,09,1.00,52.0,M,46.4,M,,*65
$GPGGA,113727.25,5139.82608,N,00720.64921,E,1,09,1.00,52.0,M,46.4,M,,*64
$GPGGA,113727.50,5139.82622,N,00720.64920,E,1,09,1.00,52.0,M,46.4,M,,*6F
$GPGGA,113727.75,5139.82637,N,00720.64918,E,1,09,1.00,52.0,M,46.4,M,,*67
$GPGGA,113728.00,5139.82656,N,00720.64913,E,1,09,1.00,52.0,M,46.4,M,,*66
$GPGGA,113728.25,5139.82677,N,00720.64909,E,1,09,1.00,52.0,M,46.4,M,,*69
$GPGGA,113728.50,5139.82691,N,00720.64906,E,1,09,1.00,52.0,M,46.4,M,,*6C
$GPGGA,113728.75,5139.82706,N,00720.64901,E,1,09,1.00,51.9,M,46.4,M,,*69
$GPGGA,113729.00,5139.82719,N,00720.64898,E,1,09,1.00,51.9,M,46.4,M,,*65
$GPGGA,113729.25,5139.82731,N,00720.64894,E,1,09,1.00,51.9,M,46.4,M,,*64
$GPGGA,113729.50,5139.82736,N,00720.64897,E,1,09,1.00,52.0,M,46.4,M,,*68
$GPGGA,113729.75,5139.82741,N,00720.64901,E,1,09,1.00,52.1,M,46.4,M,,*60
$GPGGA,113730.00,5139.82760,N,00720.64899,E,1,09,1.00,52.0,M,46.4,M,,*68
$GPGGA,113730.25,5139.82778,N,00720.64894,E,1,09,1.00,52.0,M,46.4,M,,*6B
$GPGGA,113730.50,5139.82813,N,00720.64887,E,1,09,1.00,51.8,M,46.4,M,,*62
$GPGGA,113730.75,5139.82838,N,00720.64878,E,1,09,1.00,51.7,M,46.4,M,,*63
$GPGGA,113731.00,5139.82865,N,00720.64866,E,1,08,1.09,51.5,M,46.4,M,,*6D
$GPGGA,113731.25,5139.82887,N,00720.64861,E,1,09,1.00,51.4,M,46.4,M,,*68
$GPGGA,113731.50,5139.82903,N,00720.64856,E,1,09,1.00,51.4,M,46.4,M,,*63
$GPGGA,113731.75,5139.82922,N,00720.64851,E,1,09,1.00,51.4,M,46.4,M,,*60
$GPGGA,113732.00,5139.82946,N,00720.64843,E,1,09,1.00,51.3,M,46.4,M,,*67
$GPGGA,113732.25,5139.82967,N,00720.64842,E,1,08,1.09,51.2,M,46.4,M,,*6B
$GPGGA,113732.50,5139.82992,N,00720.64839,E,1,08,1.05,51.2,M,46.4,M,,*63
$GPGGA,113732.75,5139.83027,N,00720.64840,E,1,09,1.00,51.2,M,46.4,M,,*68
$GPGGA,113733.00,5139.83062,N,00720.64842,E,1,09,1.00,51.2,M,46.4,M,,*68
$GPGGA,113733.25,5139.83088,N,00720.64838,E,1,09,1.00,51.1,M,46.4,M,,*65
$GPGGA,113733.50,5139.83106,N,00720.64833,E,1,08,1.05,51.1,M,46.4,M,,*6F
$GPGGA,113733.75,5139.83124,N,00720.64831,E,1,09,1.00,51.1,M,46.4,M,,*6E
$GPGGA,113734.00,5139.83141,N,00720.64824,E,1,09,1.00,51.0,M,46.4,M,,*6D
$GPGGA,113734.25,5139.83163,N,00720.64814,E,1,09,1.00,50.9,M,46.4,M,,*61
$GPGGA,113734.50,5139.83186,N,00720.64810,E,1,09,1.00,50.8,M,46.4,M,,*6D
$GPGGA,113734.75,5139.83207,N,00720.64811,E,1,09,1.00,50.7,M,46.4,M,,*6E
$GPGGA,113735.00,5139.83224,N,00720.64809,E,1,09,1.00,50.7,M,46.4,M,,*65
$GPGGA,113735.25,5139.83245,N,00720.64806,E,1,08,1.05,50.7,M,46.4,M,,*6E
$GPGGA,113735.50,5139.83259,N,00720.64801,E,1,09,1.00,50.6,M,46.4,M,,*63
$GPGGA,113735.75,5139.83274,N,00720.64802,E,1,09,1.00,50.6,M,46.4,M,,*68
$GPGGA,113736.00,5139.83289,N,00720.64798,E,1,09,1.00,50.6,M,46.4,M,,*67
$GPGGA,113736.25,5139.83303,N,00720.64795,E,1,09,1.00,50.6,M,46.4,M,,*6E
$GPGGA,113736.50,5139.83317,N,00720.64797,E,1,08,1.09,50.5,M,46.4,M,,*60
$GPGGA,113736.75,5139.83319,N,00720.64791,E,1,08,1.09,50.4,M,46.4,M,,*6E
$GPGGA,113737.00,5139.83340,N,00720.64787,E,1,08,1.09,50.3,M,46.4,M,,*61
$GPGGA,113737.25,5139.83356,N,00720.64784,E,1,08,1.09,50.3,M,46.4,M,,*62
$GPGGA,113737.50,5139.83370,N,00720.64780,E,1,08,1.09,50.2,M,46.4,M,,*61
$GPGGA,113737.75,5139.83380,N,00720.64778,E,1,09,1.00,50.3,M,46.4,M,,*67
$GPGGA,113738.00,5139.83401,N,00720.64769,E,1,09,1.00,50.2,M,46.4,M,,*65
$GPGGA,113738.25,5139.83419,N,00720.64765,E,1,09,1.00,50.2,M,46.4,M,,*67
$GPGGA,113738.50,5139.83430,N,00720.64759,E,1,09,1.00,50.2,M,46.4,M,,*61
$GPGGA,113738.75,5139.83445,N,00720.64752,E,1,09,1.00,50.1,M,46.4,M,,*6C
$GPGGA,113739.00,5139.83452,N,00720.64749,E,1,09,1.00,50.0,M,46.4,M,,*62
$GPGGA,113739.25,5139.83469,N,00720.64749,E,1,09,1.00,50.0,M,46.4,M,,*6D
$GPGGA,113739.50,5139.83497,N,00720.64748,E,1,09,1.00,49.9,M,46.4,M,,*6E
$GPGGA,113739.75,5139.83509,N,00720.64746,E,1,09,1.00,49.9,M,46.4,M,,*61
$GPGGA,113740.00,5139.83523,N,00720.64742,E,1,09,1.00,49.7,M,46.4,M,,*6F
$GPGGA,113740.25,5139.83546,N,00720.64741,E,1,09,1.00,49.7,M,46.4,M,,*68
$GPGGA,113740.50,5139.83556,N,00720.64738,E,1,08,1.09,49.6,M,46.4,M,,*6C
$GPGGA,113740.75,5139.83569,N,00720.64735,E,1,08,1.09,49.5,M,46.4,M,,*69
$GPGGA,113741.00,5139.83581,N,00720.64735,E,1,09,1.00,49.5,M,46.4,M,,*64
$GPGGA,113741.25,5139.83590,N,00720.64732,E,1,09,1.00,49.4,M,46.4,M,,*65
$GPGGA,113741.50,5139.83605,N,00720.64734,E,1,09,1.00,49.4,M,46.4,M,,*6E
$GPGGA,113741.75,5139.83621,N,00720.64729,E,1,09,1.00,49.3,M,46.4,M,,*64
$GPGGA,113742.00,5139.83648,N,00720.64721,E,1,09,1.00,49.2,M,46.4,M,,*63
$GPGGA,113742.25,5139.83671,N,00720.64717,E,1,09,1.00,49.1,M,46.4,M,,*68
$GPGGA,113742.50,5139.83692,N,00720.64711,E,1,09,1.00,49.0,M,46.4,M,,*60
$GPGGA,113742.75,5139.83715,N,00720.64706,E,1,09,1.00,48.9,M,46.4,M,,*67
$GPGGA,113743.00,5139.83735,N,00720.64702,E,1,09,1.00,48.8,M,46.4,M,,*63
$GPGGA,113743.25,5139.83757,N,00720.64696,E,1,09,1.00,48.8,M,46.4,M,,*6C
$GPGGA,113743.50,5139.83777,N,00720.64689,E,1,09,1.00,48.8,M,46.4,M,,*62
$GPGGA,113743.75,5139.83796,N,00720.64685,E,1,09,1.00,48.7,M,46.4,M,,*69
$GPGGA,113744.00,5139.83808,N,00720.64680,E,1,09,1.00,48.7,M,46.4,M,,*61
$GPGGA,113744.25,5139.83820,N,00720.64672,E,1,09,1.00,48.6,M,46.4,M,,*60
$GPGGA,113744.50,5139.83834,N,00720.64665,E,1,09,1.00,48.6,M,46.4,M,,*61
$GPGGA,113744.75,5139.83856,N,00720.64661,E,1,09,1.00,48.7,M,46.4,M,,*67
$GPGGA,113745.00,5139.83873,N,00720.64650,E,1,09,1.00,48.7,M,46.4,M,,*61
$GPGGA,113745.25,5139.83896,N,00720.64641,E,1,09,1.00,48.7,M,46.4,M,,*6D
$GPGGA,113745.50,5139.83911,N,00720.64626,E,1,09,1.00,48.7,M,46.4,M,,*60
$GPGGA,113745.75,5139.83924,N,00720.64611,E,1,08,1.09,48.8,M,46.4,M,,*62
$GPGGA,113746.00,5139.83932,N,00720.64592,E,1,09,1.00,48.8,M,46.4,M,,*64
$GPGGA,113746.25,5139.83948,N,00720.64571,E,1,09,1.00,48.9,M,46.4,M,,*62
$GPGGA,113746.50,5139.83946,N,00720.64545,E,1,09,1.00,49.0,M,46.4,M,,*61
$GPGGA,113746.75,5139.83944,N,00720.64519,E,1,09,1.00,49.1,M,46.4,M,,*6C
$GPGGA,113747.00,5139.83944,N,00720.64494,E,1,09,1.00,49.2,M,46.4,M,,*68
$GPGGA,113747.25,5139.83935,N,00720.64464,E,1,09,1.00,49.2,M,46.4,M,,*66
$GPGGA,113747.50,5139.83907,N,00720.64437,E,1,09,1.00,49.3,M,46.4,M,,*62
$GPGGA,113747.75,5139.83891,N,00720.64418,E,1,09,1.00,49.3,M,46.4,M,,*66
$GPGGA,113748.00,5139.83884,N,00720.64386,E,1,09,1.00,49.1,M,46.4,M,,*6D
$GPGGA,113748.25,5139.83886,N,00720.64357,E,1,09,1.00,49.1,M,46.4,M,,*64
$GPGGA,113748.50,5139.83862,N,00720.64394,E,1,09,1.00,49.0,M,46.4,M,,*62
$GPGGA,113748.75,5139.83851,N,00720.64388,E,1,09,1.00,49.0,M,46.4,M,,*68
$GPGGA,113749.00,5139.83834,N,00720.64386,E,1,09,1.00,49.0,M,46.4,M,,*66
$GPGGA,113749.25,5139.83819,N,00720.64385,E,1,09,1.00,49.0,M,46.4,M,,*6D
$GPGGA,113749.50,5139.83807,N,00720.64388,E,1,09,1.00,49.0,M,46.4,M,,*6D
$GPGGA,113749.75,5139.83797,N,00720.64395,E,1,08,1.96,49.0,M,46.4,M,,*6E
$GPGGA,113750.00,5139.83785,N,00720.64412,E,1,08,1.96,49.0,M,46.4,M,,*6F
$GPGGA,113750.25,5139.83766,N,00720.64420,E,1,09,1.00,49.1,M,46.4,M,,*6B
$GPGGA,113750.50,5139.83745,N,00720.64423,E,1,09,1.00,49.1,M,46.4,M,,*6B
$GPGGA,113750.75,5139.83726,N,00720.64430,E,1,09,1.00,49.2,M,46.4,M,,*68
$GPGGA,113751.00,5139.83706,N,00720.64442,E,1,09,1.00,49.3,M,46.4,M,,*6D
$GPGGA,113751.25,5139.83683,N,00720.64460,E,1,09,1.00,49.4,M,46.4,M,,*61
$GPGGA,113751.50,5139.83675,N,00720.64472,E,1,09,1.00,49.4,M,46.4,M,,*69
$GPGGA,113751.75,5139.83667,N,00720.64494,E,1,09,1.00,49.5,M,46.4,M,,*64
$GPGGA,113752.00,5139.83672,N,00720.64505,E,1,09,1.00,49.7,M,46.4,M,,*6A
$GPGGA,113752.25,5139.83676,N,00720.64528,E,1,09,1.00,49.7,M,46.4,M,,*66
$GPGGA,113752.50,5139.83682,N,00720.64548,E,1,09,1.00,49.8,M,46.4,M,,*66
$GPGGA,113752.75,5139.83695,N,00720.64560,E,1,09,1.00,49.8,M,46.4,M,,*6D
$GPGGA,113753.00,5139.83722,N,00720.64561,E,1,09,1.00,49.7,M,46.4,M,,*6D
$GPGGA,113753.25,5139.83739,N,00720.64560,E,1,09,1.00,49.7,M,46.4,M,,*61
$GPGGA,113753.50,5139.83761,N,00720.64556,E,1,09,1.00,49.6,M,46.4,M,,*6A
$GPGGA,113753.75,5139.83779,N,00720.64544,E,1,09,1.00,49.6,M,46.4,M,,*67
$GPGGA,113754.00,5139.83792,N,00720.64528,E,1,09,1.00,49.6,M,46.4,M,,*6D
$GPGGA,113754.25,5139.83803,N,00720.64502,E,1,09,1.00,49.5,M,46.4,M,,*66
$GPGGA,113754.50,5139.83802,N,00720.64482,E,1,09,1.00,49.6,M,46.4,M,,*6F
$GPGGA,113754.75,5139.83800,N,00720.64451,E,1,09,1.00,49.6,M,46.4,M,,*64
$GPGGA,113755.00,5139.83792,N,00720.64424,E,1,09,1.00,49.5,M,46.4,M,,*62
$GPGGA,113755.25,5139.83782,N,00720.64407,E,1,09,1.00,49.6,M,46.4,M,,*66
$GPGGA,113755.50,5139.83770,N,00720.64388,E,1,09,1.00,49.5,M,46.4,M,,*6A
$GPGGA,113755.75,5139.83762,N,00720.64381,E,1,09,1.00,49.6,M,46.4,M,,*64
$GPGGA,113756.00,5139.83750,N,00720.64386,E,1,09,1.00,49.6,M,46.4,M,,*63
$GPGGA,113756.25,5139.83726,N,00720.64397,E,1,09,1.00,49.7,M,46.4,M,,*64
$GPGGA,113756.50,5139.83712,N,00720.64409,E,1,09,1.00,49.8,M,46.4,M,,*6E
$GPGGA,113756.75,5139.83705,N,00720.64421,E,1,09,1.00,49.9,M,46.4,M,,*64
$GPGGA,113757.00,5139.83704,N,00720.64444,E,1,09,1.00,50.0,M,46.4,M,,*64
$GPGGA,113757.25,5139.83699,N,00720.64468,E,1,09,1.00,50.1,M,46.4,M,,*69
$GPGGA,113757.50,5139.83700,N,00720.64491,E,1,09,1.00,50.1,M,46.4,M,,*6C
$GPGGA,113757.75,5139.83701,N,00720.64516,E,1,09,1.00,50.1,M,46.4,M,,*64
$GPGGA,113758.00,5139.83711,N,00720.64533,E,1,08,1.13,50.2,M,46.4,M,,*6F
$GPGGA,113758.25,5139.83711,N,00720.64555,E,1,09,1.00,50.6,M,46.4,M,,*6F
$GPGGA,113758.50,5139.83714,N,00720.64570,E,1,09,1.00,50.9,M,46.4,M,,*60
$GPGGA,113758.75,5139.83729,N,00720.64578,E,1,09,1.00,50.8,M,46.4,M,,*60
$GPGGA,113759.00,5139.83752,N,00720.64573,E,1,09,1.00,50.6,M,46.4,M,,*6A
$GPGGA,113759.25,5139.83777,N,00720.64555,E,1,09,1.00,50.5,M,46.4,M,,*6D
$GPGGA,113759.50,5139.83797,N,00720.64546,E,1,09,1.00,50.5,M,46.4,M,,*63
$GPGGA,113759.75,5139.83804,N,00720.64526,E,1,09,1.00,50.4,M,46.4,M,,*66
$GPGGA,113800.00,5139.83815,N,00720.64491,E,1,09,1.00,50.0,M,46.4,M,,*6E
$GPGGA,113800.25,5139.83814,N,00720.64468,E,1,09,1.00,50.0,M,46.4,M,,*6E
$GPGGA,113800.50,5139.83809,N,00720.64448,E,1,09,1.00,50.2,M,46.4,M,,*60
$GPGGA,113800.75,5139.83808,N,00720.64428,E,1,08,1.10,50.3,M,46.4,M,,*61
$GPGGA,113801.00,5139.83797,N,00720.64410,E,1,08,1.05,50.2,M,46.4,M,,*65
$GPGGA,113801.25,5139.83781,N,00720.64403,E,1,09,1.00,50.3,M,46.4,M,,*62
$GPGGA,113801.50,5139.83766,N,00720.64401,E,1,09,1.00,50.3,M,46.4,M,,*6B
$GPGGA,113801.75,5139.83749,N,00720.64397,E,1,09,1.00,50.3,M,46.4,M,,*69
$GPGGA,113802.00,5139.83730,N,00720.64395,E,1,08,1.13,50.3,M,46.4,M,,*67
$GPGGA,113802.25,5139.83709,N,00720.64404,E,1,09,1.00,50.4,M,46.4,M,,*61
$GPGGA,113802.50,5139.83692,N,00720.64404,E,1,08,1.13,50.3,M,46.4,M,,*64
$GPGGA,113802.75,5139.83676,N,00720.64405,E,1,09,1.00,50.3,M,46.4,M,,*6B
$GPGGA,113803.00,5139.83659,N,00720.64415,E,1,09,1.00,50.4,M,46.4,M,,*63
$GPGGA,113803.25,5139.83645,N,00720.64416,E,1,09,1.00,50.4,M,46.4,M,,*6A
$GPGGA,113803.50,5139.83626,N,00720.64419,E,1,09,1.00,50.5,M,46.4,M,,*63
$GPGGA,113803.75,5139.83603,N,00720.64428,E,1,09,1.00,50.8,M,46.4,M,,*6C
$GPGGA,113804.00,5139.83579,N,00720.64443,E,1,09,1.00,51.0,M,46.4,M,,*63
$GPGGA,113804.25,5139.83571,N,00720.64445,E,1,09,1.00,50.9,M,46.4,M,,*62
$GPGGA,113804.50,5139.83551,N,00720.64449,E,1,09,1.00,51.1,M,46.4,M,,*67
$GPGGA,113804.75,5139.83537,N,00720.64450,E,1,09,1.00,51.1,M,46.4,M,,*68
$GPGGA,113805.00,5139.83516,N,00720.64452,E,1,09,1.00,51.2,M,46.4,M,,*69
$GPGGA,113805.25,5139.83504,N,00720.64451,E,1,09,1.00,51.2,M,46.4,M,,*6E
$GPGGA,113805.50,5139.83485,N,00720.64451,E,1,09,1.00,51.2,M,46.4,M,,*64
$GPGGA,113805.75,5139.83467,N,00720.64456,E,1,09,1.00,51.2,M,46.4,M,,*68
$GPGGA,113806.00,5139.83453,N,00720.64455,E,1,09,1.00,51.2,M,46.4,M,,*6D
$GPGGA,113806.25,5139.83441,N,00720.64453,E,1,09,1.00,50.9,M,46.4,M,,*65
$GPGGA,113806.50,5139.83421,N,00720.64450,E,1,09,1.00,51.0,M,46.4,M,,*6A
$GPGGA,113806.75,5139.83408,N,00720.64448,E,1,09,1.00,50.9,M,46.4,M,,*67
$GPGGA,113807.00,5139.83395,N,00720.64452,E,1,08,1.96,50.8,M,46.4,M,,*63
$GPGGA,113807.25,5139.83382,N,00720.64453,E,1,09,1.00,50.8,M,46.4,M,,*6D
$GPGGA,113807.50,5139.83361,N,00720.64461,E,1,09,1.00,50.8,M,46.4,M,,*63
$GPGGA,113807.75,5139.83347,N,00720.64464,E,1,09,1.00,50.7,M,46.4,M,,*6A
$GPGGA,113808.00,5139.83331,N,00720.64469,E,1,09,1.00,50.6,M,46.4,M,,*6A
$GPGGA,113808.25,5139.83318,N,00720.64478,E,1,09,1.00,50.5,M,46.4,M,,*65
$GPGGA,113808.50,5139.83308,N,00720.64487,E,1,09,1.00,50.3,M,46.4,M,,*60
$GPGGA,113808.75,5139.83289,N,00720.64504,E,1,09,1.00,50.4,M,46.4,M,,*62
$GPGGA,113809.00,5139.83272,N,00720.64522,E,1,09,1.00,50.5,M,46.4,M,,*60
$GPGGA,113809.25,5139.83253,N,00720.64534,E,1,09,1.00,50.7,M,46.4,M,,*61
$GPGGA,113809.50,5139.83242,N,00720.64547,E,1,09,1.00,50.6,M,46.4,M,,*66
$GPGGA,113809.75,5139.83230,N,00720.64555,E,1,09,1.00,50.5,M,46.4,M,,*64
$GPGGA,113810.00,5139.83214,N,00720.64559,E,1,09,1.00,50.5,M,46.4,M,,*64
$GPGGA,113810.25,5139.83204,N,00720.64571,E,1,09,1.00,50.4,M,46.4,M,,*69
$GPGGA,113810.50,5139.83193,N,00720.64577,E,1,09,1.00,50.3,M,46.4,M,,*67
$GPGGA,113810.75,5139.83188,N,00720.64571,E,1,09,1.00,50.1,M,46.4,M,,*6E
$GPGGA,113811.00,5139.83179,N,00720.64569,E,1,09,1.00,50.0,M,46.4,M,,*6B
$GPGGA,113811.25,5139.83174,N,00720.64573,E,1,09,1.00,49.8,M,46.4,M,,*6A
$GPGGA,113811.50,5139.83157,N,00720.64555,E,1,09,1.00,49.7,M,46.4,M,,*62
$GPGGA,113811.75,5139.83144,N,00720.64547,E,1,09,1.00,49.6,M,46.4,M,,*65
$GPGGA,113812.00,5139.83135,N,00720.64549,E,1,09,1.00,49.5,M,46.4,M,,*6F
$GPGGA,113812.25,5139.83124,N,00720.64551,E,1,09,1.00,49.3,M,46.4,M,,*67
$GPGGA,113812.50,5139.83109,N,00720.64555,E,1,08,1.07,49.3,M,46.4,M,,*68
$GPGGA,113812.75,5139.83095,N,00720.64551,E,1,09,1.00,49.2,M,46.4,M,,*68
$GPGGA,113813.00,5139.83080,N,00720.64543,E,1,09,1.00,49.2,M,46.4,M,,*6C
$GPGGA,113813.25,5139.83066,N,00720.64542,E,1,09,1.00,49.1,M,46.4,M,,*61
$GPGGA,113813.50,5139.83049,N,00720.64543,E,1,08,1.07,49.0,M,46.4,M,,*68
$GPGGA,113813.75,5139.83033,N,00720.64556,E,1,09,1.00,49.0,M,46.4,M,,*60
$GPGGA,113814.00,5139.83014,N,00720.64566,E,1,09,1.00,49.0,M,46.4,M,,*63
$GPGGA,113814.25,5139.83000,N,00720.64577,E,1,09,1.00,49.0,M,46.4,M,,*61
$GPGGA,113814.50,5139.82985,N,00720.64598,E,1,09,1.00,49.0,M,46.4,M,,*67
$GPGGA,113814.75,5139.82971,N,00720.64614,E,1,09,1.00,49.1,M,46.4,M,,*6D
$GPGGA,113815.00,5139.82962,N,00720.64637,E,1,09,1.00,49.2,M,46.4,M,,*6E
$GPGGA,113815.25,5139.82952,N,00720.64660,E,1,09,1.00,49.2,M,46.4,M,,*68
$GPGGA,113815.50,5139.82940,N,00720.64677,E,1,09,1.00,49.3,M,46.4,M,,*6E
$GPGGA,113815.75,5139.82929,N,00720.64697,E,1,09,1.00,49.2,M,46.4,M,,*69
$GPGGA,113816.00,5139.82917,N,00720.64724,E,1,08,1.13,49.3,M,46.4,M,,*6E
$GPGGA,113816.25,5139.82906,N,00720.64748,E,1,08,1.13,49.2,M,46.4,M,,*62
$GPGGA,113816.50,5139.82890,N,00720.64770,E,1,09,1.00,49.3,M,46.4,M,,*67
$GPGGA,113816.75,5139.82877,N,00720.64785,E,1,09,1.00,49.3,M,46.4,M,,*63
$GPGGA,113817.00,5139.82865,N,00720.64802,E,1,09,1.00,49.3,M,46.4,M,,*63
$GPGGA,113817.25,5139.82849,N,00720.64825,E,1,09,1.00,49.4,M,46.4,M,,*68
$GPGGA,113817.50,5139.82835,N,00720.64851,E,1,09,1.00,49.5,M,46.4,M,,*63
$GPGGA,113817.75,5139.82821,N,00720.64874,E,1,09,1.00,49.6,M,46.4,M,,*65
$GPGGA,113818.00,5139.82809,N,00720.64897,E,1,09,1.00,49.6,M,46.4,M,,*6F
$GPGGA,113818.25,5139.82793,N,00720.64925,E,1,09,1.00,49.7,M,46.4,M,,*6D
$GPGGA,113818.50,5139.82780,N,00720.64949,E,1,09,1.00,49.8,M,46.4,M,,*68
$GPGGA,113818.75,5139.82769,N,00720.64971,E,1,09,1.00,49.7,M,46.4,M,,*6C
$GPGGA,113819.00,5139.82761,N,00720.64992,E,1,09,1.00,49.7,M,46.4,M,,*6A
$GPGGA,113819.25,5139.82749,N,00720.65013,E,1,09,1.00,49.6,M,46.4,M,,*67
$GPGGA,113819.50,5139.82734,N,00720.65037,E,1,09,1.00,49.7,M,46.4,M,,*68
$GPGGA,113819.75,5139.82724,N,00720.65055,E,1,09,1.00,49.6,M,46.4,M,,*6B
$GPGGA,113820.00,5139.82711,N,00720.65076,E,1,09,1.00,49.7,M,46.4,M,,*65
$GPGGA,113820.25,5139.82702,N,00720.65098,E,1,09,1.00,49.6,M,46.4,M,,*61
$GPGGA,113820.50,5139.82691,N,00720.65121,E,1,09,1.00,49.6,M,46.4,M,,*6B
$GPGGA,113820.75,5139.82682,N,00720.65141,E,1,09,1.00,49.6,M,46.4,M,,*68
$GPGGA,113821.00,5139.82673,N,00720.65162,E,1,09,1.00,49.6,M,46.4,M,,*64
$GPGGA,113821.25,5139.82665,N,00720.65184,E,1,09,1.00,49.7,M,46.4,M,,*6D
$GPGGA,113821.50,5139.82656,N,00720.65207,E,1,09,1.00,49.7,M,46.4,M,,*67
$GPGGA,113821.75,5139.82646,N,00720.65227,E,1,09,1.00,49.7,M,46.4,M,,*63
$GPGGA,113822.00,5139.82637,N,00720.65248,E,1,09,1.00,49.7,M,46.4,M,,*6D
$GPGGA,113822.25,5139.82627,N,00720.65267,E,1,09,1.00,49.7,M,46.4,M,,*66
$GPGGA,113822.50,5139.82617,N,00720.65287,E,1,09,1.00,49.7,M,46.4,M,,*69
$GPGGA,113822.75,5139.82604,N,00720.65306,E,1,09,1.00,49.7,M,46.4,M,,*64
$GPGGA,113823.00,5139.82590,N,00720.65327,E,1,09,1.00,49.8,M,46.4,M,,*65
$GPGGA,113823.25,5139.82579,N,00720.65345,E,1,09,1.00,49.8,M,46.4,M,,*61
$GPGGA,113823.50,5139.82571,N,00720.65372,E,1,09,1.00,49.7,M,46.4,M,,*60
$GPGGA,113823.75,5139.82559,N,00720.65391,E,1,09,1.00,49.8,M,46.4,M,,*6F
$GPGGA,113824.00,5139.82547,N,00720.65407,E,1,09,1.00,49.8,M,46.4,M,,*6D
$GPGGA,113824.25,5139.82531,N,00720.65425,E,1,09,1.00,49.8,M,46.4,M,,*6B
$GPGGA,113824.50,5139.82515,N,00720.65442,E,1,09,1.00,49.9,M,46.4,M,,*6F
$GPGGA,113824.75,5139.82501,N,00720.65457,E,1,09,1.00,49.9,M,46.4,M,,*69
$GPGGA,113825.00,5139.82486,N,00720.65471,E,1,09,1.00,49.9,M,46.4,M,,*60
$GPGGA,113825.25,5139.82469,N,00720.65486,E,1,09,1.00,49.9,M,46.4,M,,*6E
$GPGGA,113825.50,5139.82451,N,00720.65502,E,1,09,1.00,50.0,M,46.4,M,,*6B
$GPGGA,113825.75,5139.82435,N,00720.65516,E,1,09,1.00,50.0,M,46.4,M,,*6B
$GPGGA,113826.00,5139.82420,N,00720.65529,E,1,09,1.00,50.0,M,46.4,M,,*62
$GPGGA,113826.25,5139.82406,N,00720.65538,E,1,09,1.00,50.1,M,46.4,M,,*60
$GPGGA,113826.50,5139.82396,N,00720.65549,E,1,09,1.00,50.0,M,46.4,M,,*6B
$GPGGA,113826.75,5139.82380,N,00720.65549,E,1,09,1.00,50.1,M,46.4,M,,*6A
$GPGGA,113827.00,5139.82379,N,00720.65549,E,1,09,1.00,50.1,M,46.4,M,,*6F
$GPGGA,113827.25,5139.82373,N,00720.65550,E,1,09,1.00,49.9,M,46.4,M,,*6A
$GPGGA,113827.50,5139.82371,N,00720.65551,E,1,09,1.00,49.6,M,46.4,M,,*64
$GPGGA,113827.75,5139.82358,N,00720.65554,E,1,09,1.00,49.6,M,46.4,M,,*6D
$GPGGA,113828.00,5139.82352,N,00720.65550,E,1,09,1.00,49.5,M,46.4,M,,*6D
$GPGGA,113828.25,5139.82341,N,00720.65549,E,1,09,1.00,49.5,M,46.4,M,,*60
$GPGGA,113828.50,5139.82334,N,00720.65551,E,1,09,1.00,49.4,M,46.4,M,,*68
$GPGGA,113828.75,5139.82322,N,00720.65548,E,1,09,1.00,49.4,M,46.4,M,,*60
$GPGGA,113829.00,5139.82312,N,00720.65541,E,1,09,1.00,49.4,M,46.4,M,,*69
$GPGGA,113829.25,5139.82301,N,00720.65534,E,1,09,1.00,49.2,M,46.4,M,,*68
$GPGGA,113829.50,5139.82289,N,00720.65531,E,1,09,1.00,49.3,M,46.4,M,,*6F
$GPGGA,113829.75,5139.82276,N,00720.65532,E,1,09,1.00,49.3,M,46.4,M,,*6B
$GPGGA,113830.00,5139.82262,N,00720.65530,E,1,09,1.00,49.2,M,46.4,M,,*67
$GPGGA,113830.25,5139.82246,N,00720.65527,E,1,09,1.00,49.3,M,46.4,M,,*61
$GPGGA,113830.50,5139.82233,N,00720.65520,E,1,09,1.00,49.3,M,46.4,M,,*66
$GPGGA,113830.75,5139.82218,N,00720.65520,E,1,09,1.00,49.4,M,46.4,M,,*6F
$GPGGA,113831.00,5139.82204,N,00720.65524,E,1,09,1.00,49.4,M,46.4,M,,*65
$GPGGA,113831.25,5139.82190,N,00720.65515,E,1,09,1.00,49.4,M,46.4,M,,*6E
$GPGGA,113831.50,5139.82177,N,00720.65515,E,1,09,1.00,49.5,M,46.4,M,,*64
$GPGGA,113831.75,5139.82165,N,00720.65510,E,1,09,1.00,49.5,M,46.4,M,,*65
$GPGGA,113832.00,5139.82153,N,00720.65508,E,1,09,1.00,49.5,M,46.4,M,,*68
$GPGGA,113832.25,5139.82144,N,00720.65503,E,1,09,1.00,49.4,M,46.4,M,,*63
$GPGGA,113832.50,5139.82137,N,00720.65493,E,1,09,1.00,49.3,M,46.4,M,,*6A
$GPGGA,113832.75,5139.82134,N,00720.65478,E,1,09,1.00,49.4,M,46.4,M,,*6C
$GPGGA,113833.00,5139.82129,N,00720.65462,E,1,09,1.00,49.4,M,46.4,M,,*68
$GPGGA,113833.25,5139.82123,N,00720.65434,E,1,09,1.00,49.5,M,46.4,M,,*67
$GPGGA,113833.50,5139.82125,N,00720.65438,E,1,09,1.00,49.0,M,46.4,M,,*6A
$GPGGA,113833.75,5139.82126,N,00720.65427,E,1,08,1.13,49.0,M,46.4,M,,*63
$GPGGA,113834.00,5139.82129,N,00720.65417,E,1,08,1.13,49.0,M,46.4,M,,*6A
$GPGGA,113834.25,5139.82131,N,00720.65404,E,1,09,1.00,49.1,M,46.4,M,,*64
$GPGGA,113834.50,5139.82136,N,00720.65420,E,1,09,1.00,48.8,M,46.4,M,,*6F
$GPGGA,113834.75,5139.82143,N,00720.65440,E,1,09,1.00,48.6,M,46.4,M,,*62
$GPGGA,113835.00,5139.82151,N,00720.65472,E,1,09,1.00,48.3,M,46.4,M,,*66
$GPGGA,113835.25,5139.82157,N,00720.65480,E,1,09,1.00,48.3,M,46.4,M,,*6A
$GPGGA,113835.50,5139.82161,N,00720.65491,E,1,09,1.00,48.2,M,46.4,M,,*6C
$GPGGA,113835.75,5139.82171,N,00720.65498,E,1,09,1.00,48.2,M,46.4,M,,*63
$GPGGA,113836.00,5139.82179,N,00720.65499,E,1,09,1.00,48.2,M,46.4,M,,*6B
$GPGGA,113836.25,5139.82190,N,00720.65519,E,1,09,1.00,48.1,M,46.4,M,,*61
$GPGGA,113836.50,5139.82202,N,00720.65533,E,1,09,1.00,48.1,M,46.4,M,,*63
$GPGGA,113836.75,5139.82211,N,00720.65544,E,1,09,1.00,48.2,M,46.4,M,,*65
$GPGGA,113837.00,5139.82220,N,00720.65558,E,1,09,1.00,48.4,M,46.4,M,,*6F
$GPGGA,113837.25,5139.82230,N,00720.65573,E,1,09,1.00,48.4,M,46.4,M,,*60
$GPGGA,113837.50,5139.82242,N,00720.65592,E,1,09,1.00,48.5,M,46.4,M,,*69
$GPGGA,113837.75,5139.82254,N,00720.65611,E,1,09,1.00,48.5,M,46.4,M,,*61
$GPGGA,113838.00,5139.82267,N,00720.65624,E,1,09,1.00,48.6,M,46.4,M,,*69
$GPGGA,113838.25,5139.82281,N,00720.65639,E,1,08,1.10,48.6,M,46.4,M,,*6A
$GPGGA,113838.50,5139.82296,N,00720.65653,E,1,08,1.10,48.5,M,46.4,M,,*61
$GPGGA,113838.75,5139.82314,N,00720.65667,E,1,09,1.00,48.4,M,46.4,M,,*6B
$GPGGA,113839.00,5139.82331,N,00720.65680,E,1,09,1.00,48.2,M,46.4,M,,*60
$GPGGA,113839.25,5139.82345,N,00720.65687,E,1,09,1.00,48.1,M,46.4,M,,*60
$GPGGA,113839.50,5139.82362,N,00720.65690,E,1,09,1.00,48.0,M,46.4,M,,*60
$GPGGA,113839.75,5139.82381,N,00720.65691,E,1,09,1.00,47.9,M,46.4,M,,*6D
$GPGGA,113840.00,5139.82402,N,00720.65690,E,1,09,1.00,47.9,M,46.4,M,,*6C
$GPGGA,113840.25,5139.82422,N,00720.65684,E,1,09,1.00,47.9,M,46.4,M,,*6C
$GPGGA,113840.50,5139.82439,N,00720.65674,E,1,09,1.00,48.0,M,46.4,M,,*6D
$GPGGA,113840.75,5139.82452,N,00720.65659,E,1,09,1.00,48.0,M,46.4,M,,*68
$GPGGA,113841.00,5139.82471,N,00720.65642,E,1,09,1.00,48.1,M,46.4,M,,*61
$GPGGA,113841.25,5139.82488,N,00720.65626,E,1,08,1.10,48.2,M,46.4,M,,*61
$GPGGA,113841.50,5139.82500,N,00720.65605,E,1,09,1.00,48.3,M,46.4,M,,*62
$GPGGA,113841.75,5139.82508,N,00720.65584,E,1,09,1.00,48.3,M,46.4,M,,*67
$GPGGA,113842.00,5139.82509,N,00720.65561,E,1,09,1.00,48.4,M,46.4,M,,*6B
$GPGGA,113842.25,5139.82514,N,00720.65533,E,1,09,1.00,48.5,M,46.4,M,,*66
$GPGGA,113842.50,5139.82525,N,00720.65510,E,1,09,1.00,48.7,M,46.4,M,,*65
$GPGGA,113842.75,5139.82527,N,00720.65485,E,1,09,1.00,48.8,M,46.4,M,,*62
$GPGGA,113843.00,5139.82533,N,00720.65456,E,1,09,1.00,48.7,M,46.4,M,,*65
$GPGGA,113843.25,5139.82533,N,00720.65435,E,1,09,1.00,48.9,M,46.4,M,,*69
$GPGGA,113843.50,5139.82546,N,00720.65419,E,1,09,1.00,48.8,M,46.4,M,,*66
$GPGGA,113843.75,5139.82552,N,00720.65401,E,1,09,1.00,48.8,M,46.4,M,,*6D
$GPGGA,113844.00,5139.82554,N,00720.65371,E,1,09,1.00,48.9,M,46.4,M,,*6F
$GPGGA,113844.25,5139.82561,N,00720.65340,E,1,09,1.00,49.0,M,46.4,M,,*64
$GPGGA,113844.50,5139.82557,N,00720.65313,E,1,09,1.00,49.1,M,46.4,M,,*64
$GPGGA,113844.75,5139.82553,N,00720.65290,E,1,09,1.00,49.4,M,46.4,M,,*68
$GPGGA,113845.00,5139.82551,N,00720.65263,E,1,09,1.00,49.6,M,46.4,M,,*67
$GPGGA,113845.25,5139.82554,N,00720.65238,E,1,09,1.00,49.6,M,46.4,M,,*6B
$GPGGA,113845.50,5139.82558,N,00720.65214,E,1,09,1.00,49.7,M,46.4,M,,*6A
$GPGGA,113845.75,5139.82562,N,00720.65186,E,1,09,1.00,49.8,M,46.4,M,,*63
$GPGGA,113846.00,5139.82570,N,00720.65168,E,1,09,1.00,49.7,M,46.4,M,,*6E
$GPGGA,113846.25,5139.82579,N,00720.65132,E,1,09,1.00,49.7,M,46.4,M,,*6F
$GPGGA,113846.50,5139.82576,N,00720.65127,E,1,09,1.00,49.7,M,46.4,M,,*66
$GPGGA,113846.75,5139.82583,N,00720.65127,E,1,09,1.00,49.4,M,46.4,M,,*68
$GPGGA,113847.00,5139.82589,N,00720.65128,E,1,09,1.00,49.3,M,46.4,M,,*69
$GPGGA,113847.25,5139.82597,N,00720.65131,E,1,09,1.00,49.1,M,46.4,M,,*6B
$GPGGA,113847.50,5139.82611,N,00720.65143,E,1,09,1.00,49.1,M,46.4,M,,*61
$GPGGA,113847.75,5139.82624,N,00720.65141,E,1,09,1.00,49.0,M,46.4,M,,*63
$GPGGA,113848.00,5139.82629,N,00720.65142,E,1,09,1.00,49.0,M,46.4,M,,*60
$GPGGA,113848.25,5139.82633,N,00720.65153,E,1,09,1.00,48.8,M,46.4,M,,*65
$GPGGA,113848.50,5139.82634,N,00720.65161,E,1,09,1.00,48.8,M,46.4,M,,*61
$GPGGA,113848.75,5139.82637,N,00720.65164,E,1,09,1.00,48.8,M,46.4,M,,*60
$GPGGA,113849.00,5139.82641,N,00720.65168,E,1,09,1.00,48.8,M,46.4,M,,*6E
$GPGGA,113849.25,5139.82644,N,00720.65186,E,1,09,1.00,48.9,M,46.4,M,,*6D
$GPGGA,113849.50,5139.82650,N,00720.65207,E,1,09,1.00,48.9,M,46.4,M,,*60
$GPGGA,113849.75,5139.82658,N,00720.65226,E,1,09,1.00,49.0,M,46.4,M,,*64
$GPGGA,113850.00,5139.82672,N,00720.65238,E,1,09,1.00,49.0,M,46.4,M,,*69
$GPGGA,113850.25,5139.82683,N,00720.65251,E,1,09,1.00,49.0,M,46.4,M,,*6F
$GPGGA,113850.50,5139.82700,N,00720.65261,E,1,09,1.00,48.9,M,46.4,M,,*6C
$GPGGA,113850.75,5139.82723,N,00720.65284,E,1,09,1.00,48.9,M,46.4,M,,*61
$GPGGA,113851.00,5139.82738,N,00720.65301,E,1,09,1.00,48.7,M,46.4,M,,*6A
$GPGGA,113851.25,5139.82755,N,00720.65315,E,1,09,1.00,48.4,M,46.4,M,,*60
$GPGGA,113851.50,5139.82766,N,00720.65328,E,1,09,1.00,48.2,M,46.4,M,,*6A
$GPGGA,113851.75,5139.82790,N,00720.65329,E,1,09,1.00,48.1,M,46.4,M,,*66
$GPGGA,113852.00,5139.82810,N,00720.65318,E,1,08,1.05,48.1,M,46.4,M,,*66
$GPGGA,113852.25,5139.82827,N,00720.65304,E,1,08,1.05,48.1,M,46.4,M,,*68
$GPGGA,113852.50,5139.82846,N,00720.65289,E,1,09,1.00,48.1,M,46.4,M,,*6D
$GPGGA,113852.75,5139.82863,N,00720.65269,E,1,09,1.00,48.1,M,46.4,M,,*63
$GPGGA,113853.00,5139.82876,N,00720.65249,E,1,09,1.00,48.2,M,46.4,M,,*65
$GPGGA,113853.25,5139.82888,N,00720.65224,E,1,09,1.00,48.2,M,46.4,M,,*68
$GPGGA,113853.50,5139.82905,N,00720.65199,E,1,09,1.00,48.2,M,46.4,M,,*6B
$GPGGA,113853.75,5139.82915,N,00720.65175,E,1,09,1.00,48.2,M,46.4,M,,*6F
$GPGGA,113854.00,5139.82921,N,00720.65155,E,1,09,1.00,48.3,M,46.4,M,,*6E
$GPGGA,113854.25,5139.82932,N,00720.65144,E,1,09,1.00,48.2,M,46.4,M,,*6A
$GPGGA,113854.50,5139.82941,N,00720.65122,E,1,09,1.00,48.2,M,46.4,M,,*6C
$GPGGA,113854.75,5139.82948,N,00720.65103,E,1,09,1.00,48.1,M,46.4,M,,*62
$GPGGA,113855.00,5139.82957,N,00720.65092,E,1,09,1.00,48.1,M,46.4,M,,*66
$GPGGA,113855.25,5139.82961,N,00720.65068,E,1,09,1.00,48.1,M,46.4,M,,*61
$GPGGA,113855.50,5139.82969,N,00720.65052,E,1,09,1.00,48.0,M,46.4,M,,*63
$GPGGA,113855.75,5139.82978,N,00720.65032,E,1,09,1.00,48.0,M,46.4,M,,*62
$GPGGA,113856.00,5139.82988,N,00720.65006,E,1,09,1.00,47.9,M,46.4,M,,*6D
$GPGGA,113856.25,5139.82998,N,00720.65003,E,1,09,1.00,47.7,M,46.4,M,,*60
$GPGGA,113856.50,5139.83003,N,00720.64981,E,1,09,1.00,47.8,M,46.4,M,,*65
$GPGGA,113856.75,5139.83021,N,00720.64969,E,1,09,1.00,48.0,M,46.4,M,,*63
$GPGGA,113857.00,5139.83035,N,00720.64954,E,1,09,1.00,48.0,M,46.4,M,,*6B
$GPGGA,113857.25,5139.83066,N,00720.64913,E,1,09,1.00,48.0,M,46.4,M,,*69
$GPGGA,113857.50,5139.83074,N,00720.64894,E,1,09,1.00,48.2,M,46.4,M,,*64
$GPGGA,113857.75,5139.83087,N,00720.64878,E,1,09,1.00,48.2,M,46.4,M,,*6D
$GPGGA,113858.00,5139.83104,N,00720.64856,E,1,08,1.10,48.2,M,46.4,M,,*66
$GPGGA,113858.25,5139.83115,N,00720.64849,E,1,08,1.10,48.2,M,46.4,M,,*6F
$GPGGA,113858.50,5139.83124,N,00720.64840,E,1,08,1.10,48.5,M,46.4,M,,*61
$GPGGA,113858.75,5139.83144,N,00720.64831,E,1,08,1.10,48.4,M,46.4,M,,*67
$GPGGA,113859.00,5139.83149,N,00720.64828,E,1,07,1.24,48.5,M,46.4,M,,*68
$GPGGA,113859.25,5139.83167,N,00720.64814,E,1,08,1.07,48.5,M,46.4,M,,*62
$GPGGA,113859.50,5139.83187,N,00720.64811,E,1,08,1.07,48.4,M,46.4,M,,*6A
$GPGGA,113859.75,5139.83196,N,00720.64802,E,1,09,1.00,48.4,M,46.4,M,,*69
$GPGGA,113900.00,5139.83211,N,00720.64801,E,1,09,1.00,48.4,M,46.4,M,,*69
$GPGGA,113900.25,5139.83228,N,00720.64799,E,1,09,1.00,48.5,M,46.4,M,,*6B
$GPGGA,113900.50,5139.83241,N,00720.64791,E,1,09,1.00,48.5,M,46.4,M,,*6E
$GPGGA,113900.75,5139.83258,N,00720.64785,E,1,09,1.00,48.6,M,46.4,M,,*67
$GPGGA,113901.00,5139.83274,N,00720.64776,E,1,09,1.00,48.6,M,46.4,M,,*66
$GPGGA,113901.25,5139.83289,N,00720.64776,E,1,09,1.00,48.6,M,46.4,M,,*63
$GPGGA,113901.50,5139.83305,N,00720.64778,E,1,09,1.00,48.6,M,46.4,M,,*6A
$GPGGA,113901.75,5139.83317,N,00720.64774,E,1,09,1.00,48.6,M,46.4,M,,*62
$GPGGA,113902.00,5139.83333,N,00720.64770,E,1,09,1.00,48.6,M,46.4,M,,*61
$GPGGA,113902.25,5139.83344,N,00720.64772,E,1,09,1.00,48.6,M,46.4,M,,*64
$GPGGA,113902.50,5139.83356,N,00720.64775,E,1,09,1.00,48.6,M,46.4,M,,*62
$GPGGA,113902.75,5139.83373,N,00720.64778,E,1,09,1.00,48.5,M,46.4,M,,*6C
$GPGGA,113903.00,5139.83375,N,00720.64782,E,1,09,1.00,48.4,M,46.4,M,,*6D
$GPGGA,113903.25,5139.83380,N,00720.64784,E,1,08,1.05,48.3,M,46.4,M,,*65
$GPGGA,113903.50,5139.83388,N,00720.64786,E,1,08,1.05,48.3,M,46.4,M,,*6D
$GPGGA,113903.75,5139.83411,N,00720.64780,E,1,08,1.07,48.2,M,46.4,M,,*68
$GPGGA,113904.00,5139.83422,N,00720.64772,E,1,08,1.07,48.2,M,46.4,M,,*60
$GPGGA,113904.25,5139.83427,N,00720.64757,E,1,09,1.00,48.3,M,46.4,M,,*62
$GPGGA,113904.50,5139.83409,N,00720.64741,E,1,09,1.00,48.3,M,46.4,M,,*6B
$GPGGA,113904.75,5139.83389,N,00720.64729,E,1,09,1.00,48.4,M,46.4,M,,*6A
$GPGGA,113905.00,5139.83385,N,00720.64717,E,1,09,1.00,48.3,M,46.4,M,,*6F
$GPGGA,113905.25,5139.83388,N,00720.64713,E,1,09,1.00,48.2,M,46.4,M,,*60
$GPGGA,113905.50,5139.83375,N,00720.64727,E,1,09,1.00,48.3,M,46.4,M,,*66
$GPGGA,113905.75,5139.83373,N,00720.64744,E,1,09,1.00,48.4,M,46.4,M,,*65
$GPGGA,113906.00,5139.83379,N,00720.64767,E,1,09,1.00,48.5,M,46.4,M,,*6E
$GPGGA,113906.25,5139.83384,N,00720.64785,E,1,09,1.00,48.5,M,46.4,M,,*67
$GPGGA,113906.50,5139.83387,N,00720.64797,E,1,09,1.00,48.6,M,46.4,M,,*66
$GPGGA,113906.75,5139.83386,N,00720.64802,E,1,08,1.07,48.6,M,46.4,M,,*65
$GPGGA,113907.00,5139.83388,N,00720.64797,E,1,08,1.07,48.6,M,46.4,M,,*6B
$GPGGA,113907.25,5139.83402,N,00720.64780,E,1,08,1.07,48.5,M,46.4,M,,*6C
$GPGGA,113907.50,5139.83414,N,00720.64760,E,1,09,1.00,48.4,M,46.4,M,,*60
$GPGGA,113907.75,5139.83421,N,00720.64739,E,1,09,1.00,48.4,M,46.4,M,,*6D
$GPGGA,113908.00,5139.83410,N,00720.64731,E,1,09,1.00,48.6,M,46.4,M,,*68
$GPGGA,113908.25,5139.83408,N,00720.64714,E,1,09,1.00,48.6,M,46.4,M,,*61
$GPGGA,113908.50,5139.83401,N,00720.64702,E,1,09,1.00,48.6,M,46.4,M,,*6D
$GPGGA,113908.75,5139.83405,N,00720.64691,E,1,09,1.00,48.4,M,46.4,M,,*67
$GPGGA,113909.00,5139.83407,N,00720.64682,E,1,09,1.00,48.1,M,46.4,M,,*61
$GPGGA,113909.25,5139.83404,N,00720.64686,E,1,09,1.00,48.1,M,46.4,M,,*61
$GPGGA,113909.50,5139.83392,N,00720.64682,E,1,09,1.00,48.1,M,46.4,M,,*6F
$GPGGA,113909.75,5139.83388,N,00720.64678,E,1,09,1.00,48.1,M,46.4,M,,*66
$GPGGA,113910.00,5139.83367,N,00720.64663,E,1,08,1.07,48.1,M,46.4,M,,*61
$GPGGA,113910.25,5139.83350,N,00720.64667,E,1,09,1.00,48.2,M,46.4,M,,*63
$GPGGA,113910.50,5139.83338,N,00720.64661,E,1,09,1.00,48.3,M,46.4,M,,*68
$GPGGA,113910.75,5139.83326,N,00720.64656,E,1,09,1.00,48.3,M,46.4,M,,*64
$GPGGA,113911.00,5139.83310,N,00720.64652,E,1,09,1.00,48.4,M,46.4,M,,*61
$GPGGA,113911.25,5139.83303,N,00720.64658,E,1,09,1.00,48.4,M,46.4,M,,*6E
$GPGGA,113911.50,5139.83291,N,00720.64663,E,1,09,1.00,48.4,M,46.4,M,,*6E
$GPGGA,113911.75,5139.83273,N,00720.64654,E,1,08,1.07,48.4,M,46.4,M,,*67
$GPGGA,113912.00,5139.83255,N,00720.64651,E,1,08,1.07,48.4,M,46.4,M,,*67
$GPGGA,113912.25,5139.83235,N,00720.64644,E,1,08,1.07,48.4,M,46.4,M,,*62
$GPGGA,113912.50,5139.83225,N,00720.64642,E,1,08,1.07,48.2,M,46.4,M,,*61
$GPGGA,113912.75,5139.83210,N,00720.64641,E,1,08,1.07,48.1,M,46.4,M,,*60
$GPGGA,113913.00,5139.83194,N,00720.64649,E,1,08,1.07,47.9,M,46.4,M,,*63
$GPGGA,113913.25,5139.83178,N,00720.64648,E,1,09,1.00,47.9,M,46.4,M,,*61
$GPGGA,113913.50,5139.83164,N,00720.64647,E,1,09,1.00,47.8,M,46.4,M,,*60
$GPGGA,113913.75,5139.83146,N,00720.64643,E,1,09,1.00,47.7,M,46.4,M,,*6C
$GPGGA,113914.00,5139.83133,N,00720.64649,E,1,09,1.00,47.7,M,46.4,M,,*61
$GPGGA,113914.25,5139.83118,N,00720.64657,E,1,09,1.00,47.7,M,46.4,M,,*60
$GPGGA,113914.50,5139.83101,N,00720.64659,E,1,09,1.00,47.8,M,46.4,M,,*6B
$GPGGA,113914.75,5139.83090,N,00720.64671,E,1,08,1.13,47.8,M,46.4,M,,*6C
$GPGGA,113915.00,5139.83077,N,00720.64680,E,1,08,1.13,47.8,M,46.4,M,,*68
$GPGGA,113915.25,5139.83069,N,00720.64695,E,1,08,1.13,47.8,M,46.4,M,,*64
$GPGGA,113915.50,5139.83061,N,00720.64711,E,1,08,1.13,47.9,M,46.4,M,,*62
$GPGGA,113915.75,5139.83049,N,00720.64724,E,1,09,1.00,47.9,M,46.4,M,,*6A
$GPGGA,113916.00,5139.83041,N,00720.64724,E,1,09,1.00,47.9,M,46.4,M,,*63
$GPGGA,113916.25,5139.83029,N,00720.64725,E,1,09,1.00,47.9,M,46.4,M,,*6B
$GPGGA,113916.50,5139.83016,N,00720.64727,E,1,09,1.00,47.9,M,46.4,M,,*67
$GPGGA,113916.75,5139.83000,N,00720.64736,E,1,09,1.00,47.9,M,46.4,M,,*67
$GPGGA,113917.00,5139.82985,N,00720.64732,E,1,09,1.00,47.9,M,46.4,M,,*65
$GPGGA,113917.25,5139.82973,N,00720.64737,E,1,09,1.00,47.9,M,46.4,M,,*6E
$GPGGA,113917.50,5139.82961,N,00720.64750,E,1,09,1.00,47.9,M,46.4,M,,*6E
$GPGGA,113917.75,5139.82945,N,00720.64763,E,1,09,1.00,47.9,M,46.4,M,,*6F
$GPGGA,113918.00,5139.82930,N,00720.64776,E,1,09,1.00,47.9,M,46.4,M,,*64
$GPGGA,113918.25,5139.82916,N,00720.64789,E,1,09,1.00,48.1,M,46.4,M,,*60
$GPGGA,113918.50,5139.82903,N,00720.64796,E,1,09,1.00,48.1,M,46.4,M,,*68
$GPGGA,113918.75,5139.82898,N,00720.64789,E,1,09,1.00,48.2,M,46.4,M,,*61
$GPGGA,113919.00,5139.82878,N,00720.64805,E,1,09,1.00,48.2,M,46.4,M,,*67
$GPGGA,113919.25,5139.82856,N,00720.64828,E,1,09,1.00,48.2,M,46.4,M,,*63
$GPGGA,113919.50,5139.82837,N,00720.64831,E,1,09,1.00,48.2,M,46.4,M,,*6E
$GPGGA,113919.75,5139.82823,N,00720.64832,E,1,09,1.00,48.2,M,46.4,M,,*6F
$GPGGA,113920.00,5139.82804,N,00720.64837,E,1,09,1.00,48.3,M,46.4,M,,*66
$GPGGA,113920.25,5139.82787,N,00720.64836,E,1,09,1.00,48.4,M,46.4,M,,*63
$GPGGA,113920.50,5139.82768,N,00720.64831,E,1,09,1.00,48.5,M,46.4,M,,*66
$GPGGA,113920.75,5139.82750,N,00720.64819,E,1,09,1.00,48.5,M,46.4,M,,*60
$GPGGA,113921.00,5139.82733,N,00720.64818,E,1,09,1.00,48.6,M,46.4,M,,*64
$GPGGA,113921.25,5139.82711,N,00720.64839,E,1,09,1.00,48.6,M,46.4,M,,*60
$GPGGA,113921.50,5139.82695,N,00720.64847,E,1,09,1.00,48.6,M,46.4,M,,*66
$GPGGA,113921.75,5139.82678,N,00720.64852,E,1,09,1.00,48.6,M,46.4,M,,*66
$GPGGA,113922.00,5139.82665,N,00720.64861,E,1,09,1.00,48.6,M,46.4,M,,*6B
$GPGGA,113922.25,5139.82652,N,00720.64871,E,1,09,1.00,48.7,M,46.4,M,,*68
$GPGGA,113922.50,5139.82642,N,00720.64880,E,1,09,1.00,48.7,M,46.4,M,,*65
$GPGGA,113922.75,5139.82625,N,00720.64890,E,1,09,1.00,48.7,M,46.4,M,,*62
$GPGGA,113923.00,5139.82611,N,00720.64898,E,1,09,1.00,48.7,M,46.4,M,,*6E
$GPGGA,113923.25,5139.82599,N,00720.64906,E,1,09,1.00,48.7,M,46.4,M,,*6C
$GPGGA,113923.50,5139.82589,N,00720.64908,E,1,09,1.00,48.8,M,46.4,M,,*6E
$GPGGA,113923.75,5139.82581,N,00720.64915,E,1,09,1.00,49.0,M,46.4,M,,*64
$GPGGA,113924.00,5139.82575,N,00720.64914,E,1,09,1.00,49.1,M,46.4,M,,*6A
$GPGGA,113924.25,5139.82573,N,00720.64914,E,1,09,1.00,49.2,M,46.4,M,,*68
$GPGGA,113924.50,5139.82563,N,00720.64928,E,1,09,1.00,49.3,M,46.4,M,,*65
$GPGGA,113924.75,5139.82553,N,00720.64942,E,1,09,1.00,49.4,M,46.4,M,,*6A
$GPGGA,113925.00,5139.82551,N,00720.64941,E,1,09,1.00,49.5,M,46.4,M,,*69
$GPGGA,113925.25,5139.82543,N,00720.64945,E,1,09,1.00,49.6,M,46.4,M,,*6A
$GPGGA,113925.50,5139.82540,N,00720.64947,E,1,09,1.00,49.6,M,46.4,M,,*69
$GPGGA,113925.75,5139.82538,N,00720.64956,E,1,09,1.00,49.5,M,46.4,M,,*62
$GPGGA,113926.00,5139.82536,N,00720.64967,E,1,09,1.00,49.3,M,46.4,M,,*69
$GPGGA,113926.25,5139.82538,N,00720.64974,E,1,09,1.00,49.2,M,46.4,M,,*63
$GPGGA,113926.50,5139.82538,N,00720.64981,E,1,09,1.00,49.1,M,46.4,M,,*68
$GPGGA,113926.75,5139.82534,N,00720.64984,E,1,09,1.00,49.0,M,46.4,M,,*67
$GPGGA,113927.00,5139.82536,N,00720.64989,E,1,09,1.00,49.1,M,46.4,M,,*6A
$GPGGA,113927.25,5139.82537,N,00720.64989,E,1,09,1.00,49.1,M,46.4,M,,*6C
$GPGGA,113927.50,5139.82537,N,00720.64983,E,1,09,1.00,49.5,M,46.4,M,,*60
$GPGGA,113927.75,5139.82534,N,00720.64978,E,1,09,1.00,50.0,M,46.4,M,,*6D
$GPGGA,113928.00,5139.82536,N,00720.64974,E,1,09,1.00,50.5,M,46.4,M,,*6B
$GPGGA,113928.25,5139.82535,N,00720.64970,E,1,09,1.00,51.1,M,46.4,M,,*6E
$GPGGA,113928.50,5139.82539,N,00720.64966,E,1,09,1.00,51.5,M,46.4,M,,*63
$GPGGA,113928.75,5139.82544,N,00720.64963,E,1,09,1.00,51.7,M,46.4,M,,*69
$GPGGA,113929.00,5139.82550,N,00720.64963,E,1,09,1.00,51.8,M,46.4,M,,*60
$GPGGA,113929.25,5139.82551,N,00720.64963,E,1,09,1.00,52.0,M,46.4,M,,*6D
$GPGGA,113929.50,5139.82554,N,00720.64962,E,1,09,1.00,51.7,M,46.4,M,,*6F
$GPGGA,113929.75,5139.82556,N,00720.64959,E,1,09,1.00,51.9,M,46.4,M,,*6C
$GPGGA,113930.00,5139.82558,N,00720.64960,E,1,09,1.00,52.0,M,46.4,M,,*68
$GPGGA,113930.25,5139.82564,N,00720.64961,E,1,09,1.00,51.9,M,46.4,M,,*6B
$GPGGA,113930.50,5139.82569,N,00720.64964,E,1,09,1.00,51.9,M,46.4,M,,*61
$GPGGA,113930.75,5139.82567,N,00720.64964,E,1,09,1.00,51.8,M,46.4,M,,*69
$GPGGA,113931.00,5139.82566,N,00720.64966,E,1,09,1.00,51.7,M,46.4,M,,*66
$GPGGA,113931.25,5139.82566,N,00720.64965,E,1,09,1.00,51.7,M,46.4,M,,*62
$GPGGA,113931.50,5139.82564,N,00720.64962,E,1,09,1.00,51.7,M,46.4,M,,*65
$GPGGA,113931.75,5139.82563,N,00720.64959,E,1,09,1.00,51.6,M,46.4,M,,*6C
$GPGGA,113932.00,5139.82559,N,00720.64960,E,1,09,1.00,51.5,M,46.4,M,,*6D
$GPGGA,113932.25,5139.82557,N,00720.64962,E,1,09,1.00,51.5,M,46.4,M,,*66
$GPGGA,113932.50,5139.82552,N,00720.64965,E,1,09,1.00,51.4,M,46.4,M,,*67
$GPGGA,113932.75,5139.82546,N,00720.64969,E,1,09,1.00,51.4,M,46.4,M,,*69
$GPGGA,113933.00,5139.82538,N,00720.64976,E,1,09,1.00,51.3,M,46.4,M,,*6A
$GPGGA,113933.25,5139.82533,N,00720.64987,E,1,09,1.00,51.5,M,46.4,M,,*6E
$GPGGA,113933.50,5139.82525,N,00720.64999,E,1,09,1.00,51.5,M,46.4,M,,*64
$GPGGA,113933.75,5139.82519,N,00720.65014,E,1,09,1.00,51.5,M,46.4,M,,*61
$GPGGA,113934.00,5139.82516,N,00720.65035,E,1,09,1.00,51.4,M,46.4,M,,*69
$GPGGA,113934.25,5139.82513,N,00720.65057,E,1,09,1.00,51.4,M,46.4,M,,*6F
$GPGGA,113934.50,5139.82513,N,00720.65076,E,1,09,1.00,51.4,M,46.4,M,,*6E
$GPGGA,113934.75,5139.82516,N,00720.65094,E,1,09,1.00,51.4,M,46.4,M,,*60
$GPGGA,113935.00,5139.82519,N,00720.65116,E,1,09,1.00,51.3,M,46.4,M,,*60
$GPGGA,113935.25,5139.82526,N,00720.65139,E,1,08,1.10,51.3,M,46.4,M,,*66
$GPGGA,113935.50,5139.82533,N,00720.65162,E,1,08,1.10,51.3,M,46.4,M,,*6E
$GPGGA,113935.75,5139.82538,N,00720.65179,E,1,08,1.10,51.4,M,46.4,M,,*6F
$GPGGA,113936.00,5139.82545,N,00720.65199,E,1,08,1.10,51.4,M,46.4,M,,*6A
$GPGGA,113936.25,5139.82549,N,00720.65224,E,1,09,1.00,51.4,M,46.4,M,,*64
$GPGGA,113936.50,5139.82554,N,00720.65245,E,1,09,1.00,51.4,M,46.4,M,,*6D
$GPGGA,113936.75,5139.82558,N,00720.65261,E,1,09,1.00,51.3,M,46.4,M,,*67
$GPGGA,113937.00,5139.82554,N,00720.65279,E,1,09,1.00,51.3,M,46.4,M,,*61
$GPGGA,113937.25,5139.82561,N,00720.65293,E,1,09,1.00,51.2,M,46.4,M,,*65
$GPGGA,113937.50,5139.82569,N,00720.65320,E,1,09,1.00,51.2,M,46.4,M,,*66
$GPGGA,113937.75,5139.82573,N,00720.65343,E,1,09,1.00,51.3,M,46.4,M,,*6E
$GPGGA,113938.00,5139.82580,N,00720.65374,E,1,09,1.00,51.3,M,46.4,M,,*6B
$GPGGA,113938.25,5139.82589,N,00720.65395,E,1,09,1.00,51.2,M,46.4,M,,*6B
$GPGGA,113938.50,5139.82592,N,00720.65414,E,1,08,1.10,51.2,M,46.4,M,,*6D
$GPGGA,113938.75,5139.82595,N,00720.65436,E,1,09,1.00,51.2,M,46.4,M,,*6D
$GPGGA,113939.00,5139.82597,N,00720.65462,E,1,07,1.13,51.2,M,46.4,M,,*61
$GPGGA,113939.25,5139.82600,N,00720.65488,E,1,09,1.00,51.1,M,46.4,M,,*60
$GPGGA,113939.50,5139.82607,N,00720.65516,E,1,09,1.00,51.2,M,46.4,M,,*60
$GPGGA,113939.75,5139.82610,N,00720.65539,E,1,09,1.00,51.2,M,46.4,M,,*6C
$GPGGA,113940.00,5139.82609,N,00720.65558,E,1,09,1.00,51.2,M,46.4,M,,*6F
$GPGGA,113940.25,5139.82610,N,00720.65583,E,1,09,1.00,51.2,M,46.4,M,,*66
$GPGGA,113940.50,5139.82610,N,00720.65604,E,1,09,1.00,51.1,M,46.4,M,,*6B
$GPGGA,113940.75,5139.82612,N,00720.65624,E,1,09,1.00,50.9,M,46.4,M,,*65
$GPGGA,113941.00,5139.82616,N,00720.65641,E,1,09,1.00,50.8,M,46.4,M,,*60
$GPGGA,113941.25,5139.82625,N,00720.65669,E,1,09,1.00,50.7,M,46.4,M,,*62
$GPGGA,113941.50,5139.82627,N,00720.65698,E,1,09,1.00,50.7,M,46.4,M,,*6C
$GPGGA,113941.75,5139.82633,N,00720.65727,E,1,09,1.00,50.7,M,46.4,M,,*6B
$GPGGA,113942.00,5139.82635,N,00720.65750,E,1,09,1.00,50.7,M,46.4,M,,*6C
$GPGGA,113942.25,5139.82630,N,00720.65776,E,1,09,1.00,50.6,M,46.4,M,,*6B
$GPGGA,113942.50,5139.82634,N,00720.65801,E,1,09,1.00,50.6,M,46.4,M,,*62
$GPGGA,113942.75,5139.82636,N,00720.65828,E,1,09,1.00,50.6,M,46.4,M,,*6C
$GPGGA,113943.00,5139.82636,N,00720.65852,E,1,09,1.00,50.6,M,46.4,M,,*62
$GPGGA,113943.25,5139.82642,N,00720.65875,E,1,09,1.00,50.7,M,46.4,M,,*62
$GPGGA,113943.50,5139.82648,N,00720.65901,E,1,09,1.00,50.7,M,46.4,M,,*68
$GPGGA,113943.75,5139.82656,N,00720.65926,E,1,09,1.00,50.7,M,46.4,M,,*65
$GPGGA,113944.00,5139.82665,N,00720.65952,E,1,09,1.00,50.7,M,46.4,M,,*63
$GPGGA,113944.25,5139.82670,N,00720.65974,E,1,09,1.00,50.6,M,46.4,M,,*65
$GPGGA,113944.50,5139.82671,N,00720.65998,E,1,09,1.00,50.5,M,46.4,M,,*67
$GPGGA,113944.75,5139.82671,N,00720.66020,E,1,09,1.00,50.5,M,46.4,M,,*69
$GPGGA,113945.00,5139.82674,N,00720.66038,E,1,09,1.00,50.3,M,46.4,M,,*60
$GPGGA,113945.25,5139.82671,N,00720.66066,E,1,09,1.00,50.6,M,46.4,M,,*6C
$GPGGA,113945.50,5139.82679,N,00720.66079,E,1,09,1.00,50.5,M,46.4,M,,*6B
$GPGGA,113945.75,5139.82685,N,00720.66099,E,1,09,1.00,50.6,M,46.4,M,,*62
$GPGGA,113946.00,5139.82693,N,00720.66127,E,1,09,1.00,50.7,M,46.4,M,,*61
$GPGGA,113946.25,5139.82702,N,00720.66150,E,1,09,1.00,50.7,M,46.4,M,,*6F
$GPGGA,113946.50,5139.82706,N,00720.66173,E,1,09,1.00,50.9,M,46.4,M,,*66
$GPGGA,113946.75,5139.82715,N,00720.66195,E,1,09,1.00,50.9,M,46.4,M,,*6B
$GPGGA,113947.00,5139.82721,N,00720.66207,E,1,09,1.00,50.9,M,46.4,M,,*67
$GPGGA,113947.25,5139.82739,N,00720.66217,E,1,09,1.00,51.0,M,46.4,M,,*60
$GPGGA,113947.50,5139.82755,N,00720.66215,E,1,08,1.04,51.0,M,46.4,M,,*6F
$GPGGA,113947.75,5139.82776,N,00720.66202,E,1,09,1.00,51.0,M,46.4,M,,*6A
$GPGGA,113948.00,5139.82788,N,00720.66181,E,1,09,1.00,51.1,M,46.4,M,,*6F
$GPGGA,113948.25,5139.82800,N,00720.66157,E,1,09,1.00,51.2,M,46.4,M,,*6F
$GPGGA,113948.50,5139.82800,N,00720.66130,E,1,09,1.00,51.1,M,46.4,M,,*6F
$GPGGA,113948.75,5139.82800,N,00720.66103,E,1,09,1.00,51.1,M,46.4,M,,*68
$GPGGA,113949.00,5139.82795,N,00720.66082,E,1,09,1.00,51.1,M,46.4,M,,*60
$GPGGA,113949.25,5139.82794,N,00720.66060,E,1,09,1.00,51.1,M,46.4,M,,*6A
$GPGGA,113949.50,5139.82800,N,00720.66038,E,1,09,1.00,51.0,M,46.4,M,,*66
$GPGGA,113949.75,5139.82800,N,00720.66017,E,1,09,1.00,51.0,M,46.4,M,,*6C
$GPGGA,113950.00,5139.82798,N,00720.65996,E,1,09,1.00,51.1,M,46.4,M,,*6A
$GPGGA,113950.25,5139.82798,N,00720.65975,E,1,09,1.00,51.1,M,46.4,M,,*60
$GPGGA,113950.50,5139.82797,N,00720.65951,E,1,09,1.00,50.9,M,46.4,M,,*62
$GPGGA,113950.75,5139.82793,N,00720.65934,E,1,09,1.00,50.9,M,46.4,M,,*62
$GPGGA,113951.00,5139.82789,N,00720.65917,E,1,09,1.00,50.9,M,46.4,M,,*6B
$GPGGA,113951.25,5139.82792,N,00720.65904,E,1,09,1.00,50.6,M,46.4,M,,*6B
$GPGGA,113951.50,5139.82787,N,00720.65884,E,1,09,1.00,50.6,M,46.4,M,,*64
$GPGGA,113951.75,5139.82780,N,00720.65858,E,1,09,1.00,50.5,M,46.4,M,,*66
$GPGGA,113952.00,5139.82775,N,00720.65843,E,1,09,1.00,50.5,M,46.4,M,,*67
